[
  {
    "shopName": "DONNA PIU'",
    "address": "VIA CAL DE FORMIGA, 18",
    "city": "SANTA GIUSTINA",
    "ZIP": "32035",
    "province": "BELLUNO",
    "numerPhone": "437888853",
    "shopType": "CENTRI ESTETICI",
    "latitude": "46.080112",
    "longitude": "12.040651"
  },
  {
    "shopName": "DONNA TU ESTETICA DI CANEPA M. FLAVIA",
    "address": "VIA ROCCA VECCHIA, 2/C",
    "city": "VIGEVANO",
    "ZIP": "27029",
    "province": "PAVIA",
    "numerPhone": "0381 70060",
    "shopType": "CENTRI ESTETICI",
    "latitude": "45.31517",
    "longitude": "8.860892"
  },
  {
    "shopName": "ERBORISTERIA D'ITALIA",
    "address": "VIA DELLE GRONDAIE,1 CEN COM LE GRONDAE",
    "city": "SIENA",
    "ZIP": "53100",
    "province": "SIENA",
    "numerPhone": "",
    "shopType": "ERBORISTERIE",
    "latitude": "43.31881",
    "longitude": "11.330757"
  },
  {
    "shopName": "ERBORISTERIE D'ITALIA",
    "address": "VIA CIRCONVALLAZIONE 39 CEN.COM. PAVONE",
    "city": "PAVONE CANAVESE",
    "ZIP": "10018",
    "province": "TORINO",
    "numerPhone": "",
    "shopType": "ERBORISTERIE",
    "latitude": "45.43437",
    "longitude": "7.8546047"
  },
  {
    "shopName": "ERBORISTERIE D'ITALIA - EUROMA",
    "address": "VIA DELL'OCEANO PACIFICO 83",
    "city": "ROMA",
    "ZIP": "144",
    "province": "ROMA",
    "numerPhone": "",
    "shopType": "ERBORISTERIE",
    "latitude": "41.81753",
    "longitude": "12.458903"
  },
  {
    "shopName": "ERBORISTERIE D'ITALIA",
    "address": "VIA DEL SEMPIONE 140",
    "city": "CASTELLETTO SOPRA TICINO",
    "ZIP": "28053",
    "province": "NOVARA",
    "numerPhone": "",
    "shopType": "ERBORISTERIE",
    "latitude": "45.719532",
    "longitude": "8.609976"
  },
  {
    "shopName": "ERB. L'ACHILLEA",
    "address": "VIA FUCECCHIELLO 7",
    "city": "FUCECCHIO",
    "ZIP": "50054",
    "province": "FIRENZE",
    "numerPhone": "",
    "shopType": "ERBORISTERIE",
    "latitude": "43.724476",
    "longitude": "10.80136"
  },
  {
    "shopName": "ERBORISTERIA D'ITALIA",
    "address": "VIALE DEGLI AVIATORI 126",
    "city": "FOGGIA",
    "ZIP": "71100",
    "province": "FOGGIA",
    "numerPhone": "",
    "shopType": "ERBORISTERIE",
    "latitude": "41.446644",
    "longitude": "15.542885"
  },
  {
    "shopName": "IL BENE NATURALE DI CIVINELLI CINZIA",
    "address": "VIA ROMA 32",
    "city": "SUSA",
    "ZIP": "10059",
    "province": "TORINO",
    "numerPhone": "",
    "shopType": "ERBORISTERIE",
    "latitude": "45.137268",
    "longitude": "7.048784"
  },
  {
    "shopName": "ERB.NATURA E SALUTE SNC - MAGAZZINO",
    "address": "VIA CARDUCCI 1",
    "city": "MONTANO LUCINO",
    "ZIP": "22070",
    "province": "COMO",
    "numerPhone": "",
    "shopType": "ERBORISTERIE",
    "latitude": "45.784462",
    "longitude": "9.04667"
  },
  {
    "shopName": "CERCHIO VERDE SNC DI TRUZZI C.& C.",
    "address": "VIA CHIERECI",
    "city": "FOLLONICA",
    "ZIP": "58022",
    "province": "GROSSETO",
    "numerPhone": "",
    "shopType": "ERBORISTERIE",
    "latitude": "42.922688",
    "longitude": "10.7593"
  },
  {
    "shopName": "DR.SSA ANNA CASALDI",
    "address": "VIA P.NERVI C/O CENTRO COMM.LATINA FIORI",
    "city": "LATINA",
    "ZIP": "4100",
    "province": "LATINA",
    "numerPhone": "",
    "shopType": "ERBORISTERIE",
    "latitude": "41.467567",
    "longitude": "12.903597"
  },
  {
    "shopName": "ELEONORA ERBORISTERIA CEN. COMM. COOP",
    "address": "VIA LUCIANO LAMA",
    "city": "MONSUMMANO TERME",
    "ZIP": "51015",
    "province": "PISTOIA",
    "numerPhone": "",
    "shopType": "ERBORISTERIE",
    "latitude": "43.865932",
    "longitude": "10.809705"
  },
  {
    "shopName": "DE STEFANO ANTONELLA C/O CENTRO COMMERCIALE COOP",
    "address": "VIA BISERNO",
    "city": "SAN VINCENZO",
    "ZIP": "57027",
    "province": "LIVORNO",
    "numerPhone": "",
    "shopType": "ERBORISTERIE",
    "latitude": "43.08705",
    "longitude": "10.542562"
  },
  {
    "shopName": "NATURA E SALUTE C/O C.C. LA PORTA",
    "address": "VIA E. RATTI",
    "city": "MONTANO LUCINO",
    "ZIP": "22070",
    "province": "COMO",
    "numerPhone": "",
    "shopType": "ERBORISTERIE",
    "latitude": "45.78605",
    "longitude": "9.048549"
  },
  {
    "shopName": "ERBE & ESSENZE SNC",
    "address": "V.LE GUGLIELMO MARCONI 129/2",
    "city": "PESCARA",
    "ZIP": "65126",
    "province": "PESCARA",
    "numerPhone": "",
    "shopType": "ERBORISTERIE",
    "latitude": "42.459347",
    "longitude": "14.219312"
  },
  {
    "shopName": "ERBORISTERIA MAIA",
    "address": "VIA ROMA 69",
    "city": "GUARDIAGRELE",
    "ZIP": "66016",
    "province": "CHIETI",
    "numerPhone": "",
    "shopType": "ERBORISTERIE",
    "latitude": "42.19174",
    "longitude": "14.2215"
  },
  {
    "shopName": "ERB.D'ITALIA C/O CENTRO COMMERCIALE CASILINO",
    "address": "VIA CASILINA 1011",
    "city": "ROMA",
    "ZIP": "169",
    "province": "ROMA",
    "numerPhone": "",
    "shopType": "ERBORISTERIE",
    "latitude": "41.869522",
    "longitude": "12.584497"
  },
  {
    "shopName": "ERB.D'ITALIA C/O C.C. BENNET LODI SUD",
    "address": "VIA EMILIA",
    "city": "SAN MARTINO IN STRADA",
    "ZIP": "26817",
    "province": "LODI",
    "numerPhone": "",
    "shopType": "ERBORISTERIE",
    "latitude": "44.210274",
    "longitude": "12.069262"
  },
  {
    "shopName": "ERB.D'ITALIA C/O C.COMM.LE IPERCOOP",
    "address": "VIA VARIANTE CISA, 40",
    "city": "SARZANA",
    "ZIP": "19038",
    "province": "LA SPEZIA",
    "numerPhone": "",
    "shopType": "ERBORISTERIE",
    "latitude": "44.107445",
    "longitude": "9.954517"
  },
  {
    "shopName": "ERBORISTERIE D'ITALIA C/O CENTRO COMMERCIALE GUERCINO",
    "address": "VIA LOVES MATTEO 2",
    "city": "CENTO",
    "ZIP": "44042",
    "province": "FERRARA",
    "numerPhone": "",
    "shopType": "ERBORISTERIE",
    "latitude": "44.747433",
    "longitude": "11.298793"
  },
  {
    "shopName": "SEMPREVERDE SNC C/O CENTRO COMM. LE VALLI",
    "address": "VIA VALLE ISOLA 9",
    "city": "COMACCHIO",
    "ZIP": "44022",
    "province": "FERRARA",
    "numerPhone": "",
    "shopType": "ERBORISTERIE",
    "latitude": "44.68907",
    "longitude": "12.209404"
  },
  {
    "shopName": "ERBORISTERIE D'ITALIA SRL",
    "address": "VIA RIDOLFI 17/19",
    "city": "EMPOLI",
    "ZIP": "50053",
    "province": "FIRENZE",
    "numerPhone": "",
    "shopType": "ERBORISTERIE",
    "latitude": "43.72197",
    "longitude": "10.947678"
  },
  {
    "shopName": "NATURA E SALUTE SNC",
    "address": "VIALE PREALPI C/C.COMM.LE I LAGHI",
    "city": "ERBA",
    "ZIP": "22036",
    "province": "COMO",
    "numerPhone": "",
    "shopType": "ERBORISTERIE",
    "latitude": "45.81162",
    "longitude": "9.226728"
  },
  {
    "shopName": "ERBORISTERIA D'ITALIA",
    "address": "CORSO ITALIA 3",
    "city": "GALLARATE",
    "ZIP": "21013",
    "province": "VARESE",
    "numerPhone": "",
    "shopType": "ERBORISTERIE",
    "latitude": "45.65944",
    "longitude": "8.79434"
  },
  {
    "shopName": "ERBORISTERIA DI QUALITA'",
    "address": "VIA GRANDE 149",
    "city": "LIVORNO",
    "ZIP": "57123",
    "province": "LIVORNO",
    "numerPhone": "",
    "shopType": "ERBORISTERIE",
    "latitude": "43.550365",
    "longitude": "10.308352"
  },
  {
    "shopName": "ERBORISTERIE D'ITALIA C/O CEN. COMM. GRAND'AFFI",
    "address": "LOC. CANOVE",
    "city": "AFFI",
    "ZIP": "37010",
    "province": "VERONA",
    "numerPhone": "",
    "shopType": "ERBORISTERIE",
    "latitude": "45.552505",
    "longitude": "10.772053"
  },
  {
    "shopName": "ERBORISTERIA GIOALE CEN. COMM. APRILIA",
    "address": "VIA DELLA RISERVA NUOVA 2",
    "city": "APRILIA",
    "ZIP": "4011",
    "province": "LATINA",
    "numerPhone": "",
    "shopType": "ERBORISTERIE",
    "latitude": "41.591232",
    "longitude": "12.630034"
  },
  {
    "shopName": "ERB. BOTANICUM",
    "address": "VIA VENEZIA GIULIA CEN. COMM.PISANOVA",
    "city": "PISA",
    "ZIP": "56124",
    "province": "PISA",
    "numerPhone": "",
    "shopType": "ERBORISTERIE",
    "latitude": "43.7068",
    "longitude": "10.431227"
  },
  {
    "shopName": "ERB.CHIARAMENTE CEN.COMM.CAMPANIA",
    "address": "LOC. AURNO",
    "city": "MARCIANISE",
    "ZIP": "81025",
    "province": "CASERTA",
    "numerPhone": "",
    "shopType": "ERBORISTERIE",
    "latitude": "41.031086",
    "longitude": "14.299541"
  },
  {
    "shopName": "ERB.D'ITALIA C/O CENTRO COMM.MUGELLO",
    "address": "PIAZZA M.L.KING",
    "city": "BORGO SAN LORENZO",
    "ZIP": "50032",
    "province": "FIRENZE",
    "numerPhone": "",
    "shopType": "ERBORISTERIE",
    "latitude": "43.953033",
    "longitude": "11.381643"
  },
  {
    "shopName": "LA GRAMIGNA DI NUTI ELISA",
    "address": "VIA FRANCESCO CASATI, 28",
    "city": "CASATENOVO",
    "ZIP": "23880",
    "province": "LECCO",
    "numerPhone": "",
    "shopType": "ERBORISTERIE",
    "latitude": "45.696907",
    "longitude": "9.303585"
  },
  {
    "shopName": "DR. TAFFI SRL CECINA CENTRO",
    "address": "CORSO MATTEOTTI 207",
    "city": "CECINA",
    "ZIP": "57023",
    "province": "LIVORNO",
    "numerPhone": "",
    "shopType": "ERBORISTERIE",
    "latitude": "43.30967",
    "longitude": "10.518413"
  },
  {
    "shopName": "ERBORISTERIE D'ITALIA",
    "address": "PIAZZA INDIPENDENZA 22",
    "city": "SARONNO",
    "ZIP": "21047",
    "province": "VARESE",
    "numerPhone": "",
    "shopType": "ERBORISTERIE",
    "latitude": "45.626877",
    "longitude": "9.038468"
  },
  {
    "shopName": "ERBORISTERIE D'ITALIA C/O CEN.COMM. FONTI DEL CORALLO",
    "address": "VIA GINO GRAZIANI 6",
    "city": "LIVORNO",
    "ZIP": "57121",
    "province": "LIVORNO",
    "numerPhone": "",
    "shopType": "ERBORISTERIE",
    "latitude": "43.55116",
    "longitude": "10.339831"
  },
  {
    "shopName": "ERBORISTERIE D'ITALIA C/O CEN. COMM IL PARCO",
    "address": "VIA DI PRATO 145",
    "city": "CALENZANO",
    "ZIP": "50041",
    "province": "FIRENZE",
    "numerPhone": "",
    "shopType": "ERBORISTERIE",
    "latitude": "43.854275",
    "longitude": "11.164348"
  },
  {
    "shopName": "ERBORISTERIE D'ITALIA C/O CEN.COMM. FUENTES",
    "address": "VIA DELLA ROSSA",
    "city": "PIANTEDO",
    "ZIP": "23010",
    "province": "SONDRIO",
    "numerPhone": "",
    "shopType": "ERBORISTERIE",
    "latitude": "46.13444",
    "longitude": "9.428779"
  },
  {
    "shopName": "ERBORISTERIA GIRASOLE C/O IPERCOOP",
    "address": "VIA BISCOLLA 48",
    "city": "MASSA E COZZILE",
    "ZIP": "51010",
    "province": "PISTOIA",
    "numerPhone": "",
    "shopType": "ERBORISTERIE",
    "latitude": "43.86133",
    "longitude": "10.764898"
  },
  {
    "shopName": "C&S NATURE SNC - C.C. IL MOLINO",
    "address": "VIA ABBAGNANO",
    "city": "SENIGALLIA",
    "ZIP": "60019",
    "province": "ANCONA",
    "numerPhone": "",
    "shopType": "ERBORISTERIE",
    "latitude": "43.70835",
    "longitude": "13.210041"
  },
  {
    "shopName": "ERBORISTERIA D'ITALIA CEN.COMM.S.MARTINO",
    "address": "VIA PORZIO GIOVANOLA 7",
    "city": "NOVARA",
    "ZIP": "28100",
    "province": "NOVARA",
    "numerPhone": "",
    "shopType": "ERBORISTERIE",
    "latitude": "45.445446",
    "longitude": "8.600003"
  },
  {
    "shopName": "ERBORISTERIA D'ITALIA - GAVINANA FIRENZE",
    "address": "VIA ERBOSA",
    "city": "FIRENZE",
    "ZIP": "50125",
    "province": "FIRENZE",
    "numerPhone": "",
    "shopType": "ERBORISTERIE",
    "latitude": "43.760345",
    "longitude": "11.290827"
  },
  {
    "shopName": "ERBORISTERIE D'ITALIA - SEREGNO",
    "address": "VIA VINCENZO DA SEREGNO 19",
    "city": "SEREGNO",
    "ZIP": "20038",
    "province": "MILANO",
    "numerPhone": "",
    "shopType": "ERBORISTERIE",
    "latitude": "45.650978",
    "longitude": "9.204901"
  },
  {
    "shopName": "ERBORISTERIE D'ITALIA CENTRO COMMERCIALE SHOPPING CENTER",
    "address": "VIA ENRICO FERMI 1",
    "city": "CURNO",
    "ZIP": "24035",
    "province": "BERGAMO",
    "numerPhone": "035 462487",
    "shopType": "ERBORISTERIE",
    "latitude": "45.68287",
    "longitude": "9.610207"
  },
  {
    "shopName": "ERBORISTERIE D'ITALIA CENTRO COMM.LE LE CORTI",
    "address": "PIAZZA DELLA REPUBBLICA 25",
    "city": "VASERE",
    "ZIP": "21100",
    "province": "VARESE",
    "numerPhone": "",
    "shopType": "ERBORISTERIE",
    "latitude": "45.81579",
    "longitude": "8.827947"
  },
  {
    "shopName": "CENTRO ESTETICO E SOLARIUM IL GIRASOLE",
    "address": "VIALE GIUSEPPE RIPAMONTI 214",
    "city": "MILANO",
    "ZIP": "20141",
    "province": "MILANO",
    "numerPhone": "02 57402667",
    "shopType": "CENTRI ESTETICI",
    "latitude": "45.43035",
    "longitude": "9.201866"
  },
  {
    "shopName": "E-MOTION SRL",
    "address": "VIA CATANIA, 23",
    "city": "LAMEZIA TERME",
    "ZIP": "88046",
    "province": "CATANZARO",
    "numerPhone": "0968 411400",
    "shopType": "CENTRI ESTETICI",
    "latitude": "38.92553",
    "longitude": "16.226545"
  },
  {
    "shopName": "EDEN ISTITUTO DI ESTETICA",
    "address": "VIA EMILIA, 51",
    "city": "RICCIONE",
    "ZIP": "47838",
    "province": "RIMINI",
    "numerPhone": "541648038",
    "shopType": "CENTRI ESTETICI",
    "latitude": "44.008366",
    "longitude": "12.64111"
  },
  {
    "shopName": "IL SOLE & LA LUNA C/O CENTRO SPORTIVO IL GABBIANO",
    "address": "L.GO BOTTICELLI,10",
    "city": "LADISPOLI",
    "ZIP": "55",
    "province": "ROMA",
    "numerPhone": "06 9911138",
    "shopType": "PALESTRE",
    "latitude": "41.94515",
    "longitude": "12.091138"
  },
  {
    "shopName": "EFFETTO DONNA DI CHIRIATTI ANNA",
    "address": "VIA DELLA PACE, 97",
    "city": "MARTANO",
    "ZIP": "73025",
    "province": "LECCE",
    "numerPhone": "0836 575740",
    "shopType": "CENTRI ESTETICI",
    "latitude": "40.20781",
    "longitude": "18.307673"
  },
  {
    "shopName": "EGIZIA ESTETICA E BENESSERE UOMO E DONNA",
    "address": "VIA IV GENOVA, 48",
    "city": "POZZUOLO DEL FRIULI",
    "ZIP": "33050",
    "province": "UDINE",
    "numerPhone": "0432 665384",
    "shopType": "CENTRI ESTETICI",
    "latitude": "45.981438",
    "longitude": "13.200901"
  },
  {
    "shopName": "CENTRO ESTETICO ELIANTO",
    "address": "VIA DEL MARE KM18,600",
    "city": "POMEZIA",
    "ZIP": "40",
    "province": "ROMA",
    "numerPhone": "06 91622067",
    "shopType": "CENTRI ESTETICI",
    "latitude": "41.652763",
    "longitude": "12.485113"
  },
  {
    "shopName": "ELIS BEAUTY DI FELICETTI ELISABETTA",
    "address": "VIA PICENO 11",
    "city": "CIVITANOVA MARCHE",
    "ZIP": "62012",
    "province": "MACERATA",
    "numerPhone": "0733 815176",
    "shopType": "CENTRI ESTETICI",
    "latitude": "43314",
    "longitude": "13.721673"
  },
  {
    "shopName": "ELISIR DI BELLEZZA",
    "address": "VIA BARZAGO 2",
    "city": "BUSSERO",
    "ZIP": "20060",
    "province": "MILANO",
    "numerPhone": "02 9503476",
    "shopType": "CENTRI ESTETICI",
    "latitude": "45.53619",
    "longitude": "9.37168"
  },
  {
    "shopName": "ELISIR DI LAMEDICA RACHELE",
    "address": "VIA SAN FRANCESCO D'ASSISI 196",
    "city": "TRINITAPOLI",
    "ZIP": "71049",
    "province": "BARLETTA ANDRIA TRANI",
    "numerPhone": "0883 632975",
    "shopType": "CENTRI ESTETICI",
    "latitude": "41.356003",
    "longitude": "16.093792"
  },
  {
    "shopName": "EMILIANO SUSANNA",
    "address": "PIAZZA IV NOVEMBRE 29",
    "city": "MESAGNE",
    "ZIP": "72023",
    "province": "BRINDISI",
    "numerPhone": "342 0383011",
    "shopType": "CENTRI ESTETICI",
    "latitude": "40.55987",
    "longitude": "17.808723"
  },
  {
    "shopName": "ESSENZE DI BARBERINI LAURA",
    "address": "VIA PORTOFINO ,11",
    "city": "MODENA",
    "ZIP": "41121",
    "province": "MODENA",
    "numerPhone": "",
    "shopType": "CENTRI ESTETICI",
    "latitude": "44.630733",
    "longitude": "10.936285"
  },
  {
    "shopName": "ESTETICA & BENESSERE DI NAZARIA MARIA",
    "address": "VIA A. STELLATO, 7",
    "city": "SAN PRISCO",
    "ZIP": "81054",
    "province": "CASERTA",
    "numerPhone": "0823 842438",
    "shopType": "CENTRI ESTETICI",
    "latitude": "41.081524",
    "longitude": "14.281368"
  },
  {
    "shopName": "ESTETICA 2000 DI BALDO LOREDANA",
    "address": "VIA BERNARDINO DA FELTRE 35/A",
    "city": "PAVIA",
    "ZIP": "27100",
    "province": "PAVIA",
    "numerPhone": "0382 32767",
    "shopType": "CENTRI ESTETICI",
    "latitude": "45.184353",
    "longitude": "9.148007"
  },
  {
    "shopName": "ESTETICA ANNALE' DI FAGIOLI ANNICA",
    "address": "VIA DELLA VILLA 39",
    "city": "MARSCIANO",
    "ZIP": "6072",
    "province": "PERUGIA",
    "numerPhone": "075 8738541",
    "shopType": "CENTRI ESTETICI",
    "latitude": "42.985374",
    "longitude": "12.285643"
  },
  {
    "shopName": "ESTETICA AVANZATA DI SABRINA DE PALO",
    "address": "VIA DEL GHIRLANDAIO 14/A",
    "city": "FIRENZE",
    "ZIP": "50121",
    "province": "FIRENZE",
    "numerPhone": "055 0125740",
    "shopType": "CENTRI ESTETICI",
    "latitude": "43.766582",
    "longitude": "11.275806"
  },
  {
    "shopName": "ESTETICA BELLEZZA E BENESSERE DI LOMBARDI SERAFINA",
    "address": "VIA LISBONA 43",
    "city": "POTENZA",
    "ZIP": "85100",
    "province": "POTENZA",
    "numerPhone": "0971 650432",
    "shopType": "CENTRI ESTETICI",
    "latitude": "40.649677",
    "longitude": "15.791107"
  },
  {
    "shopName": "ESTETICA CRISTINA BENESSERE & BELLEZZA",
    "address": "VIA DELLA TORRE, 3",
    "city": "DUBINO",
    "ZIP": "23015",
    "province": "SONDRIO",
    "numerPhone": "342687455",
    "shopType": "CENTRI ESTETICI",
    "latitude": "46.155945",
    "longitude": "9.429863"
  },
  {
    "shopName": "ESTETICA D'INCAU ROSANNA",
    "address": "VIA VEVEY, 19",
    "city": "AOSTA",
    "ZIP": "11100",
    "province": "VALLE D'AOSTA",
    "numerPhone": "0165 361314",
    "shopType": "CENTRI ESTETICI",
    "latitude": "45.736008",
    "longitude": "7.3247414"
  },
  {
    "shopName": "ESTETICA DAFNE DI MARONGIU CHIARA & C. S.N.C.",
    "address": "VIA CARLO IOZZI 1/A",
    "city": "POGGIBONSI",
    "ZIP": "53036",
    "province": "SIENA",
    "numerPhone": "0577 937895",
    "shopType": "CENTRI ESTETICI",
    "latitude": "43.46329",
    "longitude": "11.15732"
  },
  {
    "shopName": "ESTETICA DEA DI SIMEONI MARZIA",
    "address": "VIA ERMENEGILDO MINATO, 4 VALLA'",
    "city": "RIESE PIO X",
    "ZIP": "31039",
    "province": "TREVISO",
    "numerPhone": "0423 746677",
    "shopType": "CENTRI ESTETICI",
    "latitude": "45.70573",
    "longitude": "11.929976"
  },
  {
    "shopName": "ESTETICA DESIDERIO DI CARBOGNIN ERICA",
    "address": "VIA F.LLI CERVI, 2",
    "city": "CEREA",
    "ZIP": "37053",
    "province": "VERONA",
    "numerPhone": "0442 83074",
    "shopType": "CENTRI ESTETICI",
    "latitude": "45.193123",
    "longitude": "11.210085"
  },
  {
    "shopName": "ESTETICA DOLLY DI LAPILLI DOLORES",
    "address": "VIA ROMA, 7",
    "city": "SANT'ANGELO IN VADO",
    "ZIP": "61048",
    "province": "PESARO-URBINO",
    "numerPhone": "0722 810037",
    "shopType": "CENTRI ESTETICI",
    "latitude": "43.66426",
    "longitude": "12.413013"
  },
  {
    "shopName": "ESTETICA BENESSERE IO",
    "address": "VIA DEL LEONE, 16/18",
    "city": "TERNI",
    "ZIP": "5100",
    "province": "TERNI",
    "numerPhone": "0744 011044",
    "shopType": "CENTRI ESTETICI",
    "latitude": "42.563904",
    "longitude": "12.64528"
  },
  {
    "shopName": "BOUTIQUE DELLA NATURA E BENESSERE",
    "address": "VIA MAZZINI 75",
    "city": "CAMPOBASSO",
    "ZIP": "86100",
    "province": "CAMPOBASSO",
    "numerPhone": "0874 198013",
    "shopType": "CENTRI ESTETICI",
    "latitude": "41.56023",
    "longitude": "14.663749"
  },
  {
    "shopName": "ESTETICA E SOLE",
    "address": "VIA XXIV MAGGIO, 28",
    "city": "FIDENZA",
    "ZIP": "43036",
    "province": "PARMA",
    "numerPhone": "524534358",
    "shopType": "CENTRI ESTETICI",
    "latitude": "44.860092",
    "longitude": "10.074873"
  },
  {
    "shopName": "ESTETICA ELISTERO DI CARISSIMI ROBERTA",
    "address": "VIA TORINO, 1",
    "city": "COLOGNO AL SERIO",
    "ZIP": "24055",
    "province": "BERGAMO",
    "numerPhone": "035 892281",
    "shopType": "CENTRI ESTETICI",
    "latitude": "45.579197",
    "longitude": "9.703284"
  },
  {
    "shopName": "ESTETICA ESSENZA DI BUOIO MARIA NINA",
    "address": "PIAZZA MACCHIAVELLI 8",
    "city": "CASTROCARO TERME E TERRA DEL SOLE",
    "ZIP": "47011",
    "province": "FORLÌ-CESENA",
    "numerPhone": "0543 768115",
    "shopType": "CENTRI ESTETICI",
    "latitude": "44.17329",
    "longitude": "11.947226"
  },
  {
    "shopName": "ESTETICA FEMINA",
    "address": "VIA GIUSEPPE VALENTINI, 30/3",
    "city": "PRATO",
    "ZIP": "59100",
    "province": "PRATO",
    "numerPhone": "57424161",
    "shopType": "CENTRI ESTETICI",
    "latitude": "43.872185",
    "longitude": "11.099528"
  },
  {
    "shopName": "ESTETICA GRAZIELLA E DANIELA DI FALERI G.& COVIELLO D.SNC",
    "address": "VIA MAZZINI, 73",
    "city": "TORRITA DI SIENA",
    "ZIP": "53049",
    "province": "SIENA",
    "numerPhone": "0577 687042",
    "shopType": "CENTRI ESTETICI",
    "latitude": "43.170177",
    "longitude": "11.780902"
  },
  {
    "shopName": "ESTETICA IL GIGLIO DI GIGLIO ELISABETTA",
    "address": "VIA BERNARDINO LUINI, 59",
    "city": "TORINO",
    "ZIP": "10149",
    "province": "TORINO",
    "numerPhone": "011 295628",
    "shopType": "CENTRI ESTETICI",
    "latitude": "45.097282",
    "longitude": "7.664953"
  },
  {
    "shopName": "ESTETICA IRIS DI CANDITA RITA",
    "address": "VIA F.LLI BANDIERA 1",
    "city": "FRANCAVILLA FONTANA",
    "ZIP": "72021",
    "province": "BRINDISI",
    "numerPhone": "0831 815901",
    "shopType": "CENTRI ESTETICI",
    "latitude": "40.5305",
    "longitude": "17.582783"
  },
  {
    "shopName": "ESTETICA LA COCCINELLA DI LUCIA NICOLINI & C. SNC",
    "address": "VIA ROMA, 193",
    "city": "TALAMONA",
    "ZIP": "23018",
    "province": "SONDRIO",
    "numerPhone": "0342 673046",
    "shopType": "CENTRI ESTETICI",
    "latitude": "46.13683",
    "longitude": "9.605994"
  },
  {
    "shopName": "ESTETICA LUISA BEAUTY CENTER DI MONTANILE LUIGIA",
    "address": "VIA GARDENIE 3",
    "city": "BRUSCIANO",
    "ZIP": "80031",
    "province": "NAPOLI",
    "numerPhone": "081 8863311",
    "shopType": "CENTRI ESTETICI",
    "latitude": "40.92238",
    "longitude": "14.432425"
  },
  {
    "shopName": "ESTETICA MANIA DI VALTELLINA BARBARA",
    "address": "VIA F.LLI CALVI, 10/F",
    "city": "BERGAMO",
    "ZIP": "24100",
    "province": "BERGAMO",
    "numerPhone": "035 321702",
    "shopType": "CENTRI ESTETICI",
    "latitude": "45.653496",
    "longitude": "9.609618"
  },
  {
    "shopName": "ESTETICA MONICA DI MARASSI MONICA",
    "address": "VIA MONTE SANTO 68",
    "city": "GORIZIA",
    "ZIP": "34170",
    "province": "GORIZIA",
    "numerPhone": "0481 547278",
    "shopType": "CENTRI ESTETICI",
    "latitude": "45.956127",
    "longitude": "13.63131"
  },
  {
    "shopName": "ESTETICA NEW LIFE DI VANNINI SERENA",
    "address": "VIA AGNOLETTI 9-9/A",
    "city": "PRATO",
    "ZIP": "59100",
    "province": "PRATO",
    "numerPhone": "0574 467679",
    "shopType": "CENTRI ESTETICI",
    "latitude": "43.89397",
    "longitude": "11.098212"
  },
  {
    "shopName": "ESTETICA ORIETTA DI BIASIN ORIETTA",
    "address": "VIA PIETRO NICCOLINI,6",
    "city": "FERRARA",
    "ZIP": "44100",
    "province": "FERRARA",
    "numerPhone": "0532 203998",
    "shopType": "CENTRI ESTETICI",
    "latitude": "44.837105",
    "longitude": "11.606923"
  },
  {
    "shopName": "ESTETICA RAFFAELLA DI RICCARDI RAFFAELLA",
    "address": "VIA ANGELO MARCHI, 28",
    "city": "VESCOVATO",
    "ZIP": "26039",
    "province": "CREMONA",
    "numerPhone": "0372 830065",
    "shopType": "CENTRI ESTETICI",
    "latitude": "45.170933",
    "longitude": "10.162238"
  },
  {
    "shopName": "ESTETICA ROSS DI TRICARICO ROSETTA",
    "address": "VIA PIER DE' CRESCENZI, 1/2 A",
    "city": "BOLOGNA",
    "ZIP": "40131",
    "province": "BOLOGNA",
    "numerPhone": "51522423",
    "shopType": "CENTRI ESTETICI",
    "latitude": "44.502525",
    "longitude": "11.332117"
  },
  {
    "shopName": "ESTETICA SIMONA",
    "address": "VIA PROVANA, 1",
    "city": "SETTIMO TORINESE",
    "ZIP": "10036",
    "province": "TORINO",
    "numerPhone": "011 8971565",
    "shopType": "CENTRI ESTETICI",
    "latitude": "45.142143",
    "longitude": "7.7546244"
  },
  {
    "shopName": "ESTETICA TERESA",
    "address": "VIA RISORGIMENTO, 4",
    "city": "DOMEGGE DI CADORE",
    "ZIP": "32040",
    "province": "BELLUNO",
    "numerPhone": "435728039",
    "shopType": "CENTRI ESTETICI",
    "latitude": "46.45927",
    "longitude": "12.41247"
  },
  {
    "shopName": "ESTETICA UNO DI BO.DI. SRL",
    "address": "VIA VENEZIA, 10/13",
    "city": "PESCARA",
    "ZIP": "65121",
    "province": "PESCARA",
    "numerPhone": "085 4216638",
    "shopType": "CENTRI ESTETICI",
    "latitude": "42.465477",
    "longitude": "14.212742"
  },
  {
    "shopName": "ESTETICA VALLARANO",
    "address": "VIA LIVORNESE, 116",
    "city": "LASTRA A SIGNA",
    "ZIP": "50055",
    "province": "FIRENZE",
    "numerPhone": "558724596",
    "shopType": "CENTRI ESTETICI",
    "latitude": "43.770172",
    "longitude": "11.11363"
  },
  {
    "shopName": "ESTETICA VENERE DI GUNNELLA TIZIANA",
    "address": "VIA BORGO PROVARONI",
    "city": "POGGIO BUSTONE",
    "ZIP": "2018",
    "province": "RIETI",
    "numerPhone": "0746 689300",
    "shopType": "CENTRI ESTETICI",
    "latitude": "42.492157",
    "longitude": "12.86945"
  },
  {
    "shopName": "ESTETICAMENTE DI PASQUARIELLO MARIAVITTORIA",
    "address": "VIALE DEL CONSIGLIO D'EUROPA 125",
    "city": "SAN PRISCO",
    "ZIP": "81054",
    "province": "CASERTA",
    "numerPhone": "0823 693716",
    "shopType": "CENTRI ESTETICI",
    "latitude": "41.089912",
    "longitude": "14.261699"
  },
  {
    "shopName": "QUICK BEAUTY C/O CC 8 GALLERY",
    "address": "VIA NIZZA, 262 INTERNO 76/78",
    "city": "TORINO",
    "ZIP": "10128",
    "province": "TORINO",
    "numerPhone": "117410675",
    "shopType": "CENTRI ESTETICI",
    "latitude": "45.031994",
    "longitude": "7.665429"
  },
  {
    "shopName": "ESTETICSUN C/O CC AUCHAN",
    "address": "CORSO ROMANIA, 460",
    "city": "TORINO",
    "ZIP": "10156",
    "province": "TORINO",
    "numerPhone": "",
    "shopType": "CENTRI ESTETICI",
    "latitude": "45.117435",
    "longitude": "7.7136493"
  },
  {
    "shopName": "ESTETIKA",
    "address": "VIA CIVIDALE, 38/30",
    "city": "UDINE",
    "ZIP": "33100",
    "province": "UDINE",
    "numerPhone": "432501084",
    "shopType": "CENTRI ESTETICI",
    "latitude": "46.0756",
    "longitude": "13.282716"
  },
  {
    "shopName": "ETEREA BEAUTY FARM S.R.L.",
    "address": "PIAZZA DEL GRANO 7",
    "city": "SAN GIORGIO DI NOGARO",
    "ZIP": "33058",
    "province": "UDINE",
    "numerPhone": "0431 667921",
    "shopType": "CENTRI ESTETICI",
    "latitude": "45.832386",
    "longitude": "13.2111845"
  },
  {
    "shopName": "ETERNA GIOVINEZZA",
    "address": "VIA GOIULIO CESARE, 23",
    "city": "VASTO",
    "ZIP": "66054",
    "province": "CHIETI",
    "numerPhone": "873380362",
    "shopType": "CENTRI ESTETICI",
    "latitude": "42.1242",
    "longitude": "14.708478"
  },
  {
    "shopName": "EUBIOS DI CICHELLA DANIELA",
    "address": "VIA CASILINA NORD 163",
    "city": "FERENTINO",
    "ZIP": "3013",
    "province": "FROSINONE",
    "numerPhone": "0775 393099",
    "shopType": "CENTRI ESTETICI",
    "latitude": "41.697437",
    "longitude": "13.231977"
  },
  {
    "shopName": "EVOLA RITA (ESTETICA MODERNA)",
    "address": "VIA MENZO, 93",
    "city": "NISCEMI",
    "ZIP": "93010",
    "province": "CALTANISSETTA",
    "numerPhone": "0933 958296",
    "shopType": "CENTRI ESTETICI",
    "latitude": "37.14578",
    "longitude": "14.383976"
  },
  {
    "shopName": "EWA SPACE OF BEAUTY DI EWA AGNIESKA MACKOWIAK SAS",
    "address": "VIA BOEZIO, 24",
    "city": "LAMEZIA TERME",
    "ZIP": "88046",
    "province": "CATANZARO",
    "numerPhone": "0968 456685",
    "shopType": "CENTRI ESTETICI",
    "latitude": "38.94964",
    "longitude": "16.332747"
  },
  {
    "shopName": "FABBRIMARINE BY NICOLE DI BARBURA NICULINA",
    "address": "VIA SALIERI, 74/B",
    "city": "VERONA",
    "ZIP": "37132",
    "province": "VERONA",
    "numerPhone": "331-9975034",
    "shopType": "CENTRI ESTETICI",
    "latitude": "45.43199",
    "longitude": "11.044053"
  },
  {
    "shopName": "FABIA FABRIZIO - CENTRO ESTETICO WELLNESS BODY ABRIZIO",
    "address": "VIA FILIPPO CORRIDONI, 5",
    "city": "LECCE",
    "ZIP": "73100",
    "province": "LECCE",
    "numerPhone": "0832 348334",
    "shopType": "CENTRI ESTETICI",
    "latitude": "40.349552",
    "longitude": "18.182894"
  },
  {
    "shopName": "FARMABIO SNC DI PAOLA E ANNA MEMOLI",
    "address": "CORSO GIUSEPPE GARIBALDI 144",
    "city": "SALERNO",
    "ZIP": "84123",
    "province": "SALERNO",
    "numerPhone": "329 8257985",
    "shopType": "FARMACIE",
    "latitude": "40.67573",
    "longitude": "14.768001"
  },
  {
    "shopName": "FARMACIA AL REDENTORE SNC DI E. TINARELLI",
    "address": "VIA DI CAVANA, 1",
    "city": "TRIESTE",
    "ZIP": "34100",
    "province": "TRIESTE",
    "numerPhone": "040 300940",
    "shopType": "FARMACIE",
    "latitude": "45.64785",
    "longitude": "13.766407"
  },
  {
    "shopName": "FARMACIA ALLA MADONNA DOTT. PAOLO VINTANI",
    "address": "VIALE TRENTO, 2",
    "city": "BARLASSINA",
    "ZIP": "20825",
    "province": "MONZA BRIANZA",
    "numerPhone": "0362 542355",
    "shopType": "FARMACIE",
    "latitude": "45.654305",
    "longitude": "9.13055"
  },
  {
    "shopName": "FARMACIA BARBERIS ALESSANDRA & C. SAS",
    "address": "VIA MARENCO 81",
    "city": "CEVA",
    "ZIP": "12073",
    "province": "CUNEO",
    "numerPhone": "0174 701112",
    "shopType": "FARMACIE",
    "latitude": "44.38569",
    "longitude": "8.034798"
  },
  {
    "shopName": "FARMACIA BARLETTA DI BARLETTA CLAUDIA MARIA",
    "address": "VIA PELLEGRINI, 13",
    "city": "MASSA",
    "ZIP": "54100",
    "province": "MASSA-CARRARA",
    "numerPhone": "0585 791255",
    "shopType": "FARMACIE",
    "latitude": "44.02381",
    "longitude": "10.138238"
  },
  {
    "shopName": "FARMACIA COLOMBI",
    "address": "VIA NAZIONALE, 32",
    "city": "BORGO DI TERZO",
    "ZIP": "24060",
    "province": "BERGAMO",
    "numerPhone": "35820728",
    "shopType": "FARMACIE",
    "latitude": "45.720566",
    "longitude": "9.892886"
  },
  {
    "shopName": "FARMACIA CONGEDO DR.PAOLO",
    "address": "VIA POSILLIPO 328",
    "city": "NAPOLI",
    "ZIP": "80123",
    "province": "NAPOLI",
    "numerPhone": "081 5750655",
    "shopType": "FARMACIE",
    "latitude": "40.81882",
    "longitude": "14.212142"
  },
  {
    "shopName": "FARMACIA DAMBROSIO VINCENZO",
    "address": "VIA PARISI, 98",
    "city": "ALTAMURA",
    "ZIP": "70022",
    "province": "BARI",
    "numerPhone": "803103012",
    "shopType": "FARMACIE",
    "latitude": "40.831947",
    "longitude": "16.547508"
  },
  {
    "shopName": "FARMACIA DOTT. CONTE ANGELALBA",
    "address": "CORSO GARIBALDI 127",
    "city": "TERLIZZI",
    "ZIP": "70038",
    "province": "BARI",
    "numerPhone": "080 3516271",
    "shopType": "FARMACIE",
    "latitude": "41.129982",
    "longitude": "16.540245"
  },
  {
    "shopName": "FARMACIA PIAZZA BOLOGNA DELLA DR.SSA FRANCESCA MASCI E C. SAS",
    "address": "PIAZZA BOLOGNA 19",
    "city": "ROMA",
    "ZIP": "162",
    "province": "ROMA",
    "numerPhone": "06 44291150",
    "shopType": "FARMACIE",
    "latitude": "41.913338",
    "longitude": "12.52036"
  },
  {
    "shopName": "FARMACIA S.ANNA D.SSA E. PELLEGRINO",
    "address": "VIA ROMA 360",
    "city": "BELLIZZI",
    "ZIP": "84092",
    "province": "SALERNO",
    "numerPhone": "0828 355949",
    "shopType": "CENTRI ESTETICI",
    "latitude": "40.62124",
    "longitude": "14.944118"
  },
  {
    "shopName": "FARMACIA SAN ROCCO",
    "address": "VIA SAN ROCCO, 25",
    "city": "VALENZANO",
    "ZIP": "70010",
    "province": "BARI",
    "numerPhone": "804671047",
    "shopType": "FARMACIE",
    "latitude": "41.042805",
    "longitude": "16.884398"
  },
  {
    "shopName": "FARMACIA SAN ZENO SNC",
    "address": "VIA MONTE ASOLON, 5",
    "city": "CASSOLA",
    "ZIP": "36022",
    "province": "VICENZA",
    "numerPhone": "",
    "shopType": "FARMACIE",
    "latitude": "45.74799",
    "longitude": "11.765771"
  },
  {
    "shopName": "FARMACIA SPANGHERO LUCIANO",
    "address": "VIA AQUILEIA 89",
    "city": "TURRIACO",
    "ZIP": "34070",
    "province": "GORIZIA",
    "numerPhone": "0481 76025",
    "shopType": "FARMACIE",
    "latitude": "45.81741",
    "longitude": "13.44386"
  },
  {
    "shopName": "FARMACIE COMUNALE PRATO N. 3",
    "address": "PIAZZA MERCATALE 147/A",
    "city": "PRATO",
    "ZIP": "59100",
    "province": "PRATO",
    "numerPhone": "0574 30327",
    "shopType": "FARMACIE",
    "latitude": "43.879173",
    "longitude": "11.102179"
  },
  {
    "shopName": "FARMACIA COMUNALE PRATO 12",
    "address": "VIA CAVOUR 91/93",
    "city": "PRATO",
    "ZIP": "59100",
    "province": "PRATO",
    "numerPhone": "0574 27986",
    "shopType": "FARMACIE",
    "latitude": "43.87895",
    "longitude": "11.08894"
  },
  {
    "shopName": "FARMATEATE",
    "address": "VIALE PEPE, 41/5",
    "city": "PESCARA",
    "ZIP": "65127",
    "province": "PESCARA",
    "numerPhone": "085 68194",
    "shopType": "FARMACIE",
    "latitude": "42.455418",
    "longitude": "14.226504"
  },
  {
    "shopName": "FARMATEATE",
    "address": "PIAZZA PIERANGELI, 5",
    "city": "PESCARA",
    "ZIP": "65124",
    "province": "PESCARA",
    "numerPhone": "852126906",
    "shopType": "FARMACIE",
    "latitude": "42.462177",
    "longitude": "14.200712"
  },
  {
    "shopName": "FARMATEATE",
    "address": "VIA PAPA GIOVANNI XXVI, 90",
    "city": "CHIETI",
    "ZIP": "66100",
    "province": "CHIETI",
    "numerPhone": "871331942",
    "shopType": "FARMACIE",
    "latitude": "42.34898",
    "longitude": "14.16969"
  },
  {
    "shopName": "FARMATEATE C\\O C.C. CONAD",
    "address": "VIA COLONNETTA, 343",
    "city": "CHIETI",
    "ZIP": "66100",
    "province": "CHIETI",
    "numerPhone": "871551181",
    "shopType": "FARMACIE",
    "latitude": "42.357235",
    "longitude": "14.150913"
  },
  {
    "shopName": "FASCINO E STILE DI CASTALDI STEFANO",
    "address": "PIAZZA TESTACCIO 18",
    "city": "BARANO D'ISCHIA",
    "ZIP": "80070",
    "province": "NAPOLI",
    "numerPhone": "081 906413",
    "shopType": "CENTRI ESTETICI",
    "latitude": "40.705475",
    "longitude": "13.918931"
  },
  {
    "shopName": "FERRETTI ARIANNA (ESTETICA ARIANNA)",
    "address": "VIA COLA 18/A",
    "city": "AMATRICE",
    "ZIP": "2012",
    "province": "RIETI",
    "numerPhone": "0746 824547",
    "shopType": "CENTRI ESTETICI",
    "latitude": "42.629627",
    "longitude": "13.288437"
  },
  {
    "shopName": "FI.GI. DI GILIBERTO IDA",
    "address": "VIA GIOACCHINO DA FIORE, 6",
    "city": "PAOLA",
    "ZIP": "87027",
    "province": "COSENZA",
    "numerPhone": "982589328",
    "shopType": "CENTRI ESTETICI",
    "latitude": "39.35645",
    "longitude": "16.041327"
  },
  {
    "shopName": "FIORE DI LOTO DI MICCOLI MARIA",
    "address": "VIA PACINOTTI 25",
    "city": "GROTTAGLIE",
    "ZIP": "74023",
    "province": "TARANTO",
    "numerPhone": "335 5887389",
    "shopType": "CENTRI ESTETICI",
    "latitude": "40.53478",
    "longitude": "17.434008"
  },
  {
    "shopName": "VITAFIT SHOP - INTEGRATORI ALIMENTARI",
    "address": "VIA AQUILEIA, 70/B",
    "city": "UDINE",
    "ZIP": "33100",
    "province": "UDINE",
    "numerPhone": "0432 500153",
    "shopType": "PALESTRE",
    "latitude": "46.05897",
    "longitude": "13.243491"
  },
  {
    "shopName": "FITNESS S.A.S. DI MONTI ALESSANDRO & C.",
    "address": "PIAZZA FALCONE E BORSELLINO, 18",
    "city": "FORLI'",
    "ZIP": "47100",
    "province": "FORLÌ-CESENA",
    "numerPhone": "0543 62367",
    "shopType": "PALESTRE",
    "latitude": "44.21465",
    "longitude": "12.055501"
  },
  {
    "shopName": "GABRY ESTETIC",
    "address": "VIA TEVERE, 25",
    "city": "CASORIA",
    "ZIP": "80026",
    "province": "NAPOLI",
    "numerPhone": "",
    "shopType": "CENTRI ESTETICI",
    "latitude": "40.9191",
    "longitude": "14.300429"
  },
  {
    "shopName": "GAMMONE GIUSEPPINA ALL BEAUTY",
    "address": "VIA TADDEINO TADDEINI 37",
    "city": "MONTESPERTOLI",
    "ZIP": "50025",
    "province": "FIRENZE",
    "numerPhone": "0571 609909",
    "shopType": "CENTRI ESTETICI",
    "latitude": "43.64376",
    "longitude": "11.072994"
  },
  {
    "shopName": "IL REGNO DELLE ERBE",
    "address": "CORSO EUROPA, 1081/B",
    "city": "GENOVA",
    "ZIP": "16148",
    "province": "GENOVA",
    "numerPhone": "",
    "shopType": "ERBORISTERIE",
    "latitude": "44.394497",
    "longitude": "9.00116"
  },
  {
    "shopName": "IL REGNO DELLE ERBE",
    "address": "VIA PORTA D'ARCHI,14/R",
    "city": "GENOVA",
    "ZIP": "16121",
    "province": "GENOVA",
    "numerPhone": "",
    "shopType": "ERBORISTERIE",
    "latitude": "44.405605",
    "longitude": "8.937969"
  },
  {
    "shopName": "IL REGNO DELLE ERBE",
    "address": "LARGO DELLE FUCINE, 6",
    "city": "GENOVA",
    "ZIP": "16121",
    "province": "GENOVA",
    "numerPhone": "",
    "shopType": "ERBORISTERIE",
    "latitude": "44.40822",
    "longitude": "8.935752"
  },
  {
    "shopName": "IL REGNO DELLE ERBE",
    "address": "CORSO BUOENOS AIRES, 94/R",
    "city": "GENOVA",
    "ZIP": "16129",
    "province": "GENOVA",
    "numerPhone": "",
    "shopType": "ERBORISTERIE",
    "latitude": "44.40322",
    "longitude": "8.950537"
  },
  {
    "shopName": "IL REGNO DELLE ERBE",
    "address": "CORSO RICCI",
    "city": "SAVONA",
    "ZIP": "17100",
    "province": "SAVONA",
    "numerPhone": "",
    "shopType": "ERBORISTERIE",
    "latitude": "44.312683",
    "longitude": "8.4732065"
  },
  {
    "shopName": "IL REGNO DELLE ERBE C/O LE TERRAZZE",
    "address": "VIA FONTEVIVO",
    "city": "LA SPEZIA",
    "ZIP": "19121",
    "province": "LA SPEZIA",
    "numerPhone": "",
    "shopType": "ERBORISTERIE",
    "latitude": "44.122627",
    "longitude": "9.836243"
  },
  {
    "shopName": "IL REGNO DELLE ERBE",
    "address": "VIA G.SFORZA, 21",
    "city": "LA SPEZIA",
    "ZIP": "19121",
    "province": "LA SPEZIA",
    "numerPhone": "",
    "shopType": "ERBORISTERIE",
    "latitude": "44.105045",
    "longitude": "9.820849"
  },
  {
    "shopName": "IL REGNO DELLE ERBE",
    "address": "CORSO ASTI, 24",
    "city": "ALBA",
    "ZIP": "12051",
    "province": "CUNEO",
    "numerPhone": "",
    "shopType": "ERBORISTERIE",
    "latitude": "44.71725",
    "longitude": "8.03555"
  },
  {
    "shopName": "IL REGNO DELLE ERBE",
    "address": "VIA LA PIRA, 18",
    "city": "CREMA",
    "ZIP": "26013",
    "province": "CREMONA",
    "numerPhone": "",
    "shopType": "ERBORISTERIE",
    "latitude": "45.358437",
    "longitude": "9.66677"
  },
  {
    "shopName": "IL REGNO DELLE ERBE C\\O C.C. MARCONI",
    "address": "VIA DOLIANOVA, 35",
    "city": "CAGLIARI",
    "ZIP": "9134",
    "province": "CAGLIARI",
    "numerPhone": "",
    "shopType": "ERBORISTERIE",
    "latitude": "39.247997",
    "longitude": "9.135942"
  },
  {
    "shopName": "IL REGNO DELLE ERBE",
    "address": "VIA MULINETTI, 15",
    "city": "CARASCO",
    "ZIP": "16042",
    "province": "GENOVA",
    "numerPhone": "",
    "shopType": "ERBORISTERIE",
    "latitude": "44.35318",
    "longitude": "9.344804"
  },
  {
    "shopName": "IL REGNO DELLE ERBE",
    "address": "VIA GALATA, 52/R",
    "city": "GENOVA",
    "ZIP": "16042",
    "province": "GENOVA",
    "numerPhone": "",
    "shopType": "ERBORISTERIE",
    "latitude": "44.407436",
    "longitude": "8.943268"
  },
  {
    "shopName": "GIOVANNELLI PAOLA ESTETICA PAOLA DI PAOLA GIOVANNELLI",
    "address": "PIAZZALE DEI CARRETTIERI - Z.A. LA GR",
    "city": "CASTIGLIONE DELLA PESCAIA",
    "ZIP": "58043",
    "province": "GROSSETO",
    "numerPhone": "3298170280",
    "shopType": "CENTRI ESTETICI",
    "latitude": "42.763893",
    "longitude": "10.87502"
  },
  {
    "shopName": "GLAMOUR DI BIGLIAZZI ELISA",
    "address": "PIAZZA GIORGIO AMBROSOLI, 9",
    "city": "FOIANO DELLA CHIANA",
    "ZIP": "52045",
    "province": "AREZZO",
    "numerPhone": "0575 640191",
    "shopType": "CENTRI ESTETICI",
    "latitude": "43.249706",
    "longitude": "11.818113"
  },
  {
    "shopName": "GLOBAL CONSULTING GROUP S.R.L.S.",
    "address": "PIAZZA MONTE GENNARO 25",
    "city": "ROMA",
    "ZIP": "139",
    "province": "ROMA",
    "numerPhone": "391 1140964",
    "shopType": "CENTRI ESTETICI",
    "latitude": "41.94471",
    "longitude": "12.537936"
  },
  {
    "shopName": "GOBETTI ELENA LA ROSE CENTRO BENESSERE",
    "address": "P.ZZA CASTELLO",
    "city": "GONZAGA",
    "ZIP": "46023",
    "province": "MANTOVA",
    "numerPhone": "0376 588249",
    "shopType": "CENTRI ESTETICI",
    "latitude": "44.9543",
    "longitude": "10.821511"
  },
  {
    "shopName": "GRAN GUSTO S.P.A.",
    "address": "VIA NUOVA MARINA 5",
    "city": "NAPOLI",
    "ZIP": "80133",
    "province": "NAPOLI",
    "numerPhone": "081 19376800",
    "shopType": "CENTRI ESTETICI",
    "latitude": "40.844215",
    "longitude": "14.258626"
  },
  {
    "shopName": "GREEN APPLE DI MIGLINI SILVIA",
    "address": "VIA MANZONI, 12",
    "city": "OMEGNA",
    "ZIP": "28887",
    "province": "VERBANO-CUSIO-OSSOLA",
    "numerPhone": "32363921",
    "shopType": "CENTRI ESTETICI",
    "latitude": "45.875973",
    "longitude": "8.410792"
  },
  {
    "shopName": "3 BEAUTY CENTER DI GREGGIO PAOLA & C.",
    "address": "VIA PROVINCIALE, 86",
    "city": "SAN FEDELE INTELVI",
    "ZIP": "22028",
    "province": "COMO",
    "numerPhone": "031 831631",
    "shopType": "CENTRI ESTETICI",
    "latitude": "45.96897",
    "longitude": "9.07484"
  },
  {
    "shopName": "ESTETICA SILVIA",
    "address": "VIA EMILIA PONENTE, 184/A",
    "city": "BOLOGNA",
    "ZIP": "40133",
    "province": "BOLOGNA",
    "numerPhone": "051 385869",
    "shopType": "CENTRI ESTETICI",
    "latitude": "44.509003",
    "longitude": "11.295537"
  },
  {
    "shopName": "HEGO DI PIRALLA ALICE",
    "address": "PIAZZA MORA E GIBIN 15/17",
    "city": "BORGOMANERO",
    "ZIP": "28021",
    "province": "NOVARA",
    "numerPhone": "0322 845993",
    "shopType": "CENTRI ESTETICI",
    "latitude": "45.69978",
    "longitude": "8.46411"
  },
  {
    "shopName": "CENTRO ESTETICO EDEN",
    "address": "VIA F.LLI CERVI, 18",
    "city": "LACCHIARELLA",
    "ZIP": "20084",
    "province": "MILANO",
    "numerPhone": "290033152",
    "shopType": "CENTRI ESTETICI",
    "latitude": "45.321968",
    "longitude": "9.1371975"
  },
  {
    "shopName": "HOTEL GUGLIELMO S.P.A.",
    "address": "VIA AZARIA TEDESCHI 1",
    "city": "CATANZARO",
    "ZIP": "88100",
    "province": "CATANZARO",
    "numerPhone": "0961 741922",
    "shopType": "CENTRI ESTETICI",
    "latitude": "38.914433",
    "longitude": "16.583544"
  },
  {
    "shopName": "HOTEL TOSCO-ROMAGNOLO",
    "address": "PIAZZA DANTE ALIGHIERI, 2",
    "city": "BAGNO DI ROMAGNA",
    "ZIP": "47021",
    "province": "FORLÌ-CESENA",
    "numerPhone": "543911260",
    "shopType": "CENTRI ESTETICI",
    "latitude": "43.860653",
    "longitude": "11.978998"
  },
  {
    "shopName": "IB SUN",
    "address": "VIA VERROTTI, 2",
    "city": "MONTESILVANO",
    "ZIP": "65015",
    "province": "PESCARA",
    "numerPhone": "854483307",
    "shopType": "CENTRI ESTETICI",
    "latitude": "42.50666",
    "longitude": "14.159126"
  },
  {
    "shopName": "IKOS SAS DI PETITO BARBARA & C",
    "address": "VIA PIRANDELLO, 4/A",
    "city": "MILANO",
    "ZIP": "20144",
    "province": "MILANO",
    "numerPhone": "02 4818948",
    "shopType": "CENTRI ESTETICI",
    "latitude": "45.463375",
    "longitude": "9.156623"
  },
  {
    "shopName": "IL CIGNO",
    "address": "VIA MONCALIERI, 164",
    "city": "GRUGLIASCO",
    "ZIP": "10095",
    "province": "TORINO",
    "numerPhone": "011 3098184",
    "shopType": "CENTRI ESTETICI",
    "latitude": "45.04392",
    "longitude": "7.6176925"
  },
  {
    "shopName": "IL FASCINO DEL BENESSERE DI IENI ELVIRA",
    "address": "VIA PALOMBARESE, 424",
    "city": "FONTE NUOVA",
    "ZIP": "13",
    "province": "ROMA",
    "numerPhone": "06 9050456",
    "shopType": "CENTRI ESTETICI",
    "latitude": "41.986267",
    "longitude": "12.659353"
  },
  {
    "shopName": "IL FIORDALISO DI CASTIGLIONI IRENE & C. S.a.s.",
    "address": "VIA VITTORIO VENETO 31",
    "city": "MAGNAGO",
    "ZIP": "20020",
    "province": "MILANO",
    "numerPhone": "0331 306612",
    "shopType": "CENTRI ESTETICI",
    "latitude": "45.57593",
    "longitude": "8.817507"
  },
  {
    "shopName": "IL MONDO DI CATERINA DI GRECO CATERINA",
    "address": "VIA ROMEO, 60",
    "city": "ACIREALE",
    "ZIP": "95024",
    "province": "CATANIA",
    "numerPhone": "095 605886",
    "shopType": "PALESTRE",
    "latitude": "37.6124",
    "longitude": "15.167896"
  },
  {
    "shopName": "IL MONDO DI LARA DI LARA DEON",
    "address": "PIAZZA DEI MARTIRI 23",
    "city": "SEDICO",
    "ZIP": "32036",
    "province": "BELLUNO",
    "numerPhone": "0437 838566",
    "shopType": "CENTRI ESTETICI",
    "latitude": "46.095978",
    "longitude": "12.086204"
  },
  {
    "shopName": "IL PAPAVERO CENTRO BENESSERE DI CHIADO' ARIANNA MARGHERITA",
    "address": "VIALE BONA, 5",
    "city": "CASELLE TORINESE",
    "ZIP": "10072",
    "province": "TORINO",
    "numerPhone": "011 9912527",
    "shopType": "CENTRI ESTETICI",
    "latitude": "45.177242",
    "longitude": "7.641819"
  },
  {
    "shopName": "IL SALOTTINO DI ESTETICA DI BOTTO SUSANNA",
    "address": "VIA TRIESTE 13/B",
    "city": "BIELLA",
    "ZIP": "13900",
    "province": "BIELLA",
    "numerPhone": "015-22661",
    "shopType": "CENTRI ESTETICI",
    "latitude": "45.56186",
    "longitude": "8.060185"
  },
  {
    "shopName": "IL SOLE S.A.S. DI SIGILLO' MARIANGELA",
    "address": "VIA BETULLE, 33",
    "city": "TREVIOLO",
    "ZIP": "24048",
    "province": "BERGAMO",
    "numerPhone": "035 200769",
    "shopType": "CENTRI ESTETICI",
    "latitude": "45.67429",
    "longitude": "9.618772"
  },
  {
    "shopName": "IL TEMPIO DELLA SALUTE",
    "address": "VIA TEATRO VECCHIO, 4",
    "city": "SALO'",
    "ZIP": "25087",
    "province": "BRESCIA",
    "numerPhone": "365556321",
    "shopType": "CENTRI ESTETICI",
    "latitude": "45.60683",
    "longitude": "10.52302"
  },
  {
    "shopName": "IL TEMPIO DI VENERE",
    "address": "VIA DAO, 4",
    "city": "SPIAZZO",
    "ZIP": "38088",
    "province": "TRENTO",
    "numerPhone": "465801510",
    "shopType": "CENTRI ESTETICI",
    "latitude": "46.06039",
    "longitude": "10.713627"
  },
  {
    "shopName": "IL TEMPIO DI VENERE CENTRO BENESSERE - ESTETICA - SOLARIUM",
    "address": "VIA NISO 39-43",
    "city": "ROMA",
    "ZIP": "181",
    "province": "ROMA",
    "numerPhone": "06 78348641",
    "shopType": "CENTRI ESTETICI",
    "latitude": "41.876472",
    "longitude": "12.522545"
  },
  {
    "shopName": "INTERNATIONAL BEAUTY CLUB DI G. DI MAIO",
    "address": "VIA SPINA SANTA",
    "city": "SELLIA MARINA",
    "ZIP": "88050",
    "province": "CATANZARO",
    "numerPhone": "0961 964155",
    "shopType": "CENTRI ESTETICI",
    "latitude": "38.899895",
    "longitude": "16.743383"
  },
  {
    "shopName": "IO NARCISO SOC.COOP.ARTL",
    "address": "VIA MOSCO 7/9",
    "city": "SIRACUSA",
    "ZIP": "96100",
    "province": "SIRACUSA",
    "numerPhone": "0931 67386",
    "shopType": "CENTRI ESTETICI",
    "latitude": "37.07076",
    "longitude": "15.28715"
  },
  {
    "shopName": "ISHVARA DI BARBARA LIVOTTI",
    "address": "VIA CESARE BATTISTI 11/D",
    "city": "GRADISCA D'ISONZO",
    "ZIP": "34072",
    "province": "GORIZIA",
    "numerPhone": "0481 93652",
    "shopType": "CENTRI ESTETICI",
    "latitude": "45.89075",
    "longitude": "13.503318"
  },
  {
    "shopName": "ISTITUTO ROSSELLA ESTETICA",
    "address": "VIA CAVERNI, 2",
    "city": "MONTELUPO FIORENTINO",
    "ZIP": "50056",
    "province": "FIRENZE",
    "numerPhone": "571913290",
    "shopType": "CENTRI ESTETICI",
    "latitude": "43.73265",
    "longitude": "11.020488"
  },
  {
    "shopName": "ISTITUTO DI BELLEZZA E SOLARIUM CALYPSO DI MULAZZI ERIKA & C. SAS",
    "address": "VIA GRAN SASSO, 87-89",
    "city": "ROMA",
    "ZIP": "141",
    "province": "ROMA",
    "numerPhone": "06 87180011",
    "shopType": "CENTRI ESTETICI",
    "latitude": "41.93946",
    "longitude": "12.53813"
  },
  {
    "shopName": "ISTITUTO DI BELLEZZA LINEA DONNA DI ZENI PATRIZIA",
    "address": "VIA TRENTO 89/5",
    "city": "CLES",
    "ZIP": "38023",
    "province": "TRENTO",
    "numerPhone": "0463 423300",
    "shopType": "CENTRI ESTETICI",
    "latitude": "46.35751",
    "longitude": "11.037648"
  },
  {
    "shopName": "ISTITUTO DI BELLEZZA REGALE",
    "address": "VIA XXV APRILE, 11A/6",
    "city": "GENOVA",
    "ZIP": "16123",
    "province": "GENOVA",
    "numerPhone": "010 562448",
    "shopType": "CENTRI ESTETICI",
    "latitude": "44.40919",
    "longitude": "8.934844"
  },
  {
    "shopName": "ISTITUTO DI BELLEZZA VANITY DI GEMITI ANNA",
    "address": "VIA ORLANDO, 69",
    "city": "ANDRIA",
    "ZIP": "76123",
    "province": "BARLETTA ANDRIA TRANI",
    "numerPhone": "0883 552322",
    "shopType": "CENTRI ESTETICI",
    "latitude": "41.228867",
    "longitude": "16.299278"
  },
  {
    "shopName": "ISTITUTO DI ESTETICA DI PANI AUSILIA MARIA FEDELA",
    "address": "VIA ROSSINI, 48/A",
    "city": "CAGLIARI",
    "ZIP": "9128",
    "province": "CAGLIARI",
    "numerPhone": "070 494984",
    "shopType": "CENTRI ESTETICI",
    "latitude": "39.22311",
    "longitude": "9.129328"
  },
  {
    "shopName": "ISTITUTO ESTETICO DI CRISTINA WETZIG",
    "address": "VIA COLOMBO, 27 R",
    "city": "ALBISSOLA MARINA",
    "ZIP": "17012",
    "province": "SAVONA",
    "numerPhone": "019 485812",
    "shopType": "CENTRI ESTETICI",
    "latitude": "44.327656",
    "longitude": "8.5024605"
  },
  {
    "shopName": "ITALIAN PROJECT DI RONCALDI IVAN",
    "address": "VIA VINCENZO FERRARI 4/C",
    "city": "REGGIO EMILIA",
    "ZIP": "42124",
    "province": "REGGIO EMILIA",
    "numerPhone": "333 9710887",
    "shopType": "CENTRI ESTETICI",
    "latitude": "44.704037",
    "longitude": "10.618592"
  },
  {
    "shopName": "J & G SNC DI MORATTI JESSICA",
    "address": "VIA CALVI 42",
    "city": "MANTOVA",
    "ZIP": "46100",
    "province": "MANTOVA",
    "numerPhone": "",
    "shopType": "CENTRI ESTETICI",
    "latitude": "45.15641",
    "longitude": "10.79548"
  },
  {
    "shopName": "KALIDA DI SPADELLINI PAMELA",
    "address": "VIA XX SETTEMBRE 108",
    "city": "MOGLIANO",
    "ZIP": "62010",
    "province": "MACERATA",
    "numerPhone": "0733 557506",
    "shopType": "CENTRI ESTETICI",
    "latitude": "43.1858",
    "longitude": "13.470127"
  },
  {
    "shopName": "KALIDRIA ESTETICA E BENESSERE DI STEFANIA PERRUCCI",
    "address": "VIALE REGINA MARGHERITA, 93",
    "city": "ORIA",
    "ZIP": "72024",
    "province": "BRINDISI",
    "numerPhone": "329 45500056",
    "shopType": "CENTRI ESTETICI",
    "latitude": "40.50381",
    "longitude": "17.64546"
  },
  {
    "shopName": "KARA ESTETICA DI CINZIA DEL GENIO",
    "address": "VIA GIOVANNI MONGELLI, 20",
    "city": "MARTINA FRANCA",
    "ZIP": "74015",
    "province": "TARANTO",
    "numerPhone": "080 4800323",
    "shopType": "CENTRI ESTETICI",
    "latitude": "40.70096",
    "longitude": "17.336645"
  },
  {
    "shopName": "KIRIKU' SAS",
    "address": "VIA MERLONI 154",
    "city": "GAGLIOLE",
    "ZIP": "62022",
    "province": "MACERATA",
    "numerPhone": "0737 642830",
    "shopType": "CENTRI ESTETICI",
    "latitude": "43.217785",
    "longitude": "13.063904"
  },
  {
    "shopName": "L'ANGOLO AZZURRO DI ANZALONE GIOVANNA",
    "address": "VIA ROMA, 67",
    "city": "VERCURAGO",
    "ZIP": "23808",
    "province": "LECCO",
    "numerPhone": "0341 220387",
    "shopType": "CENTRI ESTETICI",
    "latitude": "45.81026",
    "longitude": "9.42404"
  },
  {
    "shopName": "L'ANGOLO DEL BENESSERE SRL",
    "address": "VIA IGNAZIO RIBOTTI, 8/B",
    "city": "ROMA",
    "ZIP": "149",
    "province": "ROMA",
    "numerPhone": "06 5504176",
    "shopType": "CENTRI ESTETICI",
    "latitude": "41.852768",
    "longitude": "12.450127"
  },
  {
    "shopName": "L'ANGOLO DELLA BELLEZZA",
    "address": "VIA FOSCHERINI, 9",
    "city": "SORBOLO",
    "ZIP": "43058",
    "province": "PARMA",
    "numerPhone": "521690227",
    "shopType": "CENTRI ESTETICI",
    "latitude": "44.849567",
    "longitude": "10.449204"
  },
  {
    "shopName": "L'ANGOLO DELLA SALUTE",
    "address": "VIA PADRE SAVARESE, 54",
    "city": "ANDRIA",
    "ZIP": "70031",
    "province": "BARLETTA ANDRIA TRANI",
    "numerPhone": "883543225",
    "shopType": "FARMACIE",
    "latitude": "41.217278",
    "longitude": "16.293814"
  },
  {
    "shopName": "L'ELITE DI ACCETTURA ROSANNA",
    "address": "VIA CAIO BEBIO 5/7",
    "city": "CEGLIE DEL CAMPO",
    "ZIP": "70129",
    "province": "BARI",
    "numerPhone": "",
    "shopType": "CENTRI ESTETICI",
    "latitude": "41.0642",
    "longitude": "16.864664"
  },
  {
    "shopName": "L'ESSENZA DI DE FILIPPIS PATRIZIA & C. S.A.S.",
    "address": "VIA LUIGI PUNZI 29",
    "city": "FONDI",
    "ZIP": "4022",
    "province": "LATINA",
    "numerPhone": "0771 513684",
    "shopType": "CENTRI ESTETICI",
    "latitude": "41.357273",
    "longitude": "13.420513"
  },
  {
    "shopName": "L'ESSENZA DI EGLE CARMINATI",
    "address": "VIA LIBERTA' 9",
    "city": "PALADINA",
    "ZIP": "24030",
    "province": "BERGAMO",
    "numerPhone": "035 637190",
    "shopType": "CENTRI ESTETICI",
    "latitude": "45.72856",
    "longitude": "9.6051035"
  },
  {
    "shopName": "L'ESTETICA BEAUTY WELLNESS",
    "address": "VIA F.LLI PAGANI, 7/C",
    "city": "CASTELLI CALEPIO",
    "ZIP": "24060",
    "province": "BERGAMO",
    "numerPhone": "30732604",
    "shopType": "CENTRI ESTETICI",
    "latitude": "45.614395",
    "longitude": "9.890855"
  },
  {
    "shopName": "COCCOLE E SOLE",
    "address": "VIA DELL'ARGIN GROSSO, 77",
    "city": "FIRENZE",
    "ZIP": "50142",
    "province": "FIRENZE",
    "numerPhone": "559061912",
    "shopType": "CENTRI ESTETICI",
    "latitude": "43.783188",
    "longitude": "11.191154"
  },
  {
    "shopName": "LA BOTTEGA DEL BENESSERE DI DE CANIO GIADA",
    "address": "VIA CARLO BERNARDI 73",
    "city": "ROMA",
    "ZIP": "139",
    "province": "ROMA",
    "numerPhone": "06 87138970",
    "shopType": "CENTRI ESTETICI",
    "latitude": "41.967083",
    "longitude": "12.552165"
  },
  {
    "shopName": "LA CLINICA DI BERTUOL STEFANO SPECIALISTI IN DIMAGRIMENTO E ANTI-AGING",
    "address": "VIA XXV APRILE 2/E",
    "city": "THIENE",
    "ZIP": "36016",
    "province": "VICENZA",
    "numerPhone": "445363631",
    "shopType": "CENTRI ESTETICI",
    "latitude": "45.701485",
    "longitude": "11.476306"
  },
  {
    "shopName": "LA DOLCE VITA SAS DI LUAN JWU YUNN & C.",
    "address": "VIA SAN FRANCESCO D'ASSISI",
    "city": "NOVARA",
    "ZIP": "28100",
    "province": "NOVARA",
    "numerPhone": "0321 1817220",
    "shopType": "CENTRI ESTETICI",
    "latitude": "45.44949",
    "longitude": "8.62513"
  },
  {
    "shopName": "LA NINFEA DI NISI WALMEN",
    "address": "VIA CUPA 35",
    "city": "GRAFFIGNANO",
    "ZIP": "1020",
    "province": "VITERBO",
    "numerPhone": "0761 901547",
    "shopType": "CENTRI ESTETICI",
    "latitude": "42.57428",
    "longitude": "12.20087"
  },
  {
    "shopName": "LA NOUVELLE ESTETIQUE DI ZERBINI SARA",
    "address": "VIA CREMA, 1",
    "city": "COLOGNO AL SERIO",
    "ZIP": "24055",
    "province": "BERGAMO",
    "numerPhone": "035 892497",
    "shopType": "CENTRI ESTETICI",
    "latitude": "45.577744",
    "longitude": "9.709762"
  },
  {
    "shopName": "CENTRO SOLE ESTETICA E ABBRONZATURA",
    "address": "VIA M. LAZZARI, 2",
    "city": "COLOGNO AL SERIO",
    "ZIP": "24055",
    "province": "BERGAMO",
    "numerPhone": "035 896849",
    "shopType": "CENTRI ESTETICI",
    "latitude": "45.587624",
    "longitude": "9.703511"
  },
  {
    "shopName": "LA NUOVA IMMAGINE",
    "address": "VIA BACCIO MONTELUPO, 125",
    "city": "FIRENZE",
    "ZIP": "50142",
    "province": "FIRENZE",
    "numerPhone": "557323194",
    "shopType": "CENTRI ESTETICI",
    "latitude": "43.76912",
    "longitude": "11.194687"
  },
  {
    "shopName": "LA NUOVA SORGENTE S.N.C. DI BUTTO' AGATA E ROSETTA",
    "address": "VIA PASUBIO 19/21",
    "city": "PADERNO DUGNANO",
    "ZIP": "20037",
    "province": "MILANO",
    "numerPhone": "02 91921060",
    "shopType": "CENTRI ESTETICI",
    "latitude": "45.572433",
    "longitude": "9.148693"
  },
  {
    "shopName": "LA ROSA",
    "address": "VIA FRERMI, 492",
    "city": "CADREZZATE",
    "ZIP": "21020",
    "province": "VARESE",
    "numerPhone": "331953798",
    "shopType": "CENTRI ESTETICI",
    "latitude": "45.81509",
    "longitude": "8.621882"
  },
  {
    "shopName": "LA SPIAGGIA SAS DI GIANNINI LOREDANA",
    "address": "VIALE PALOTTA, 46",
    "city": "RIMINI",
    "ZIP": "47922",
    "province": "RIMINI",
    "numerPhone": "0541 733710",
    "shopType": "CENTRI ESTETICI",
    "latitude": "44.0817",
    "longitude": "12.540898"
  },
  {
    "shopName": "LA TUA ESTETICA",
    "address": "VIA FRANCESCO CRISPI, 35",
    "city": "SAN GIORGIO IONICO",
    "ZIP": "74027",
    "province": "TARANTO",
    "numerPhone": "995918548",
    "shopType": "CENTRI ESTETICI",
    "latitude": "40.46068",
    "longitude": "17.374332"
  },
  {
    "shopName": "LA VIE EN ROSES",
    "address": "VIA FRAGALA",
    "city": "ROCCA DI NETO",
    "ZIP": "88821",
    "province": "CROTONE",
    "numerPhone": "9621947169",
    "shopType": "CENTRI ESTETICI",
    "latitude": "39.190742",
    "longitude": "16.99896"
  },
  {
    "shopName": "LAMONICA MIRAGLIO FILIPPA",
    "address": "VIA LIGURIA 27",
    "city": "GIOIOSA MAREA",
    "ZIP": "98063",
    "province": "MESSINA",
    "numerPhone": "0941 302377",
    "shopType": "CENTRI ESTETICI",
    "latitude": "38.17066",
    "longitude": "14.8941"
  },
  {
    "shopName": "LATINI PATRIZIA CENTRO ESTETICO",
    "address": "VIA G. SPALVIERI 6/A",
    "city": "ASCOLI PICENO",
    "ZIP": "63100",
    "province": "ASCOLI PICENO",
    "numerPhone": "0736 45083",
    "shopType": "CENTRI ESTETICI",
    "latitude": "42.849895",
    "longitude": "13.589848"
  },
  {
    "shopName": "LE LAMPADOS DI MELIS PATRIZIA",
    "address": "VIA BREGLIO,18",
    "city": "TORINO",
    "ZIP": "10147",
    "province": "TORINO",
    "numerPhone": "011 2217965",
    "shopType": "CENTRI ESTETICI",
    "latitude": "45.098713",
    "longitude": "7.683645"
  },
  {
    "shopName": "LE NINFEE DI BELLINI DANIELA",
    "address": "VIA GARIBALDI, 105",
    "city": "SAN SECONDO PARMENSE",
    "ZIP": "43017",
    "province": "PARMA",
    "numerPhone": "0521 874164",
    "shopType": "CENTRI ESTETICI",
    "latitude": "44.92141",
    "longitude": "10.228949"
  },
  {
    "shopName": "LEGGERE EMOZIONI",
    "address": "VIA SAN GIUSEPPE, 63",
    "city": "CHIESINA UZZANESE",
    "ZIP": "51013",
    "province": "PISTOIA",
    "numerPhone": "57248793",
    "shopType": "CENTRI ESTETICI",
    "latitude": "43.837315",
    "longitude": "10.71784"
  },
  {
    "shopName": "LIAN BELLEZZA & BENESSERE DI LIBARDI ANNA",
    "address": "CONTRADA PONTEVENERE 31",
    "city": "SANT'AGATA DE' GOTI",
    "ZIP": "82019",
    "province": "BENEVENTO",
    "numerPhone": "0823 956617",
    "shopType": "CENTRI ESTETICI",
    "latitude": "41.089558",
    "longitude": "14.499884"
  },
  {
    "shopName": "LIGHT BEAUTY & SPA",
    "address": "VIALE MONTEGRAPPA, 312",
    "city": "PRATO",
    "ZIP": "59100",
    "province": "PRATO",
    "numerPhone": "574578073",
    "shopType": "CENTRI ESTETICI",
    "latitude": "43.865166",
    "longitude": "11.116045"
  },
  {
    "shopName": "LIGHT PIEDIRIPA",
    "address": "VIA VELLUTI SCN",
    "city": "MACERATA",
    "ZIP": "62100",
    "province": "MACERATA",
    "numerPhone": "0733 283100",
    "shopType": "CENTRI ESTETICI",
    "latitude": "43.298428",
    "longitude": "13.453477"
  },
  {
    "shopName": "LIGHT RECANATI",
    "address": "VIA SANTA CROCE, 34",
    "city": "RECANATI",
    "ZIP": "62019",
    "province": "MACERATA",
    "numerPhone": "071 7576101",
    "shopType": "CENTRI ESTETICI",
    "latitude": "43.357685",
    "longitude": "13.484886"
  },
  {
    "shopName": "LILIANA PROFUMI ESTETICA DI LABARTINO CONSIGLIA",
    "address": "VIA VENARIA 27/A",
    "city": "TORINO",
    "ZIP": "10148",
    "province": "TORINO",
    "numerPhone": "011 2260874",
    "shopType": "CENTRI ESTETICI",
    "latitude": "45.107082",
    "longitude": "7.66178"
  },
  {
    "shopName": "LINEA ESTETICA DI VOLPI PAOLA",
    "address": "VIA MARTIRI DEL PADULE, 6",
    "city": "LAMPORECCHIO",
    "ZIP": "51035",
    "province": "PISTOIA",
    "numerPhone": "0573 82457",
    "shopType": "CENTRI ESTETICI",
    "latitude": "43.81462",
    "longitude": "10.894734"
  },
  {
    "shopName": "LINEA ESTETICA ROBERTA DI DEVORIER ROBERTA",
    "address": "VIA EMILIA 9",
    "city": "FONTEVIVO",
    "ZIP": "43010",
    "province": "PARMA",
    "numerPhone": "0521 618475",
    "shopType": "CENTRI ESTETICI",
    "latitude": "44.82537",
    "longitude": "10.211708"
  },
  {
    "shopName": "LINEA MARY",
    "address": "VIA STRETTO ANTICO, 25",
    "city": "CATANZARO",
    "ZIP": "88100",
    "province": "CATANZARO",
    "numerPhone": "961131619",
    "shopType": "CENTRI ESTETICI",
    "latitude": "38.822803",
    "longitude": "16.609869"
  },
  {
    "shopName": "LOLLOBY DI CERABINO FLORIANA",
    "address": "VIA E. BERLINGUER 28",
    "city": "SPINAZZOLA",
    "ZIP": "70058",
    "province": "BARLETTA ANDRIA TRANI",
    "numerPhone": "0883 681263",
    "shopType": "CENTRI ESTETICI",
    "latitude": "40.967876",
    "longitude": "16.091753"
  },
  {
    "shopName": "LORANGE DI BILLIA ANNA MARIA E POGLIANO MICAELA E C. SNC",
    "address": "VIA DE CHALLAND, 10",
    "city": "AOSTA",
    "ZIP": "11100",
    "province": "VALLE D'AOSTA",
    "numerPhone": "0165 361080",
    "shopType": "CENTRI ESTETICI",
    "latitude": "45.73595",
    "longitude": "7.3172946"
  },
  {
    "shopName": "MAYA CLUB",
    "address": "VIA DEL PONTE, 66",
    "city": "FANO",
    "ZIP": "61032",
    "province": "PESARO-URBINO",
    "numerPhone": "721808045",
    "shopType": "CENTRI ESTETICI",
    "latitude": "43.834305",
    "longitude": "13.032923"
  },
  {
    "shopName": "FIGURELLA",
    "address": "VIA IGINIO ROTA, 30",
    "city": "VIMERCATE",
    "ZIP": "20871",
    "province": "MONZA BRIANZA",
    "numerPhone": "39660456",
    "shopType": "CENTRI ESTETICI",
    "latitude": "45.617397",
    "longitude": "9.360045"
  },
  {
    "shopName": "FIGURELLA",
    "address": "VIA STATALE, 11/A",
    "city": "MERATE",
    "ZIP": "23807",
    "province": "LECCO",
    "numerPhone": "399909400",
    "shopType": "CENTRI ESTETICI",
    "latitude": "45.699657",
    "longitude": "9.408187"
  },
  {
    "shopName": "M. & C. CENTRI ESTETICI",
    "address": "VIA DELLE MAGNOLIE, 2",
    "city": "BRACCIANO",
    "ZIP": "62",
    "province": "ROMA",
    "numerPhone": "06 60658957",
    "shopType": "CENTRI ESTETICI",
    "latitude": "42.09853",
    "longitude": "12.160637"
  },
  {
    "shopName": "M.G.T. SNC",
    "address": "VIA MANZONI, 62",
    "city": "CARPI",
    "ZIP": "41012",
    "province": "MODENA",
    "numerPhone": "059 654843",
    "shopType": "CENTRI ESTETICI",
    "latitude": "44.7897",
    "longitude": "10.885213"
  },
  {
    "shopName": "IL SALOTTINO DI ANNA MARIA MACCHI",
    "address": "VIA FEDERICO CONFALONIERI, 5",
    "city": "MILANO",
    "ZIP": "20124",
    "province": "MILANO",
    "numerPhone": "",
    "shopType": "CENTRI ESTETICI",
    "latitude": "45.486553",
    "longitude": "9.190103"
  },
  {
    "shopName": "MADEMOISELLE BEAUTE' DI DANIELA DE RISO DANIELA",
    "address": "VIA GIOVANNI PASCOLI 2D",
    "city": "MERATE",
    "ZIP": "23807",
    "province": "LECCO",
    "numerPhone": "",
    "shopType": "CENTRI ESTETICI",
    "latitude": "45.70143",
    "longitude": "9.417333"
  },
  {
    "shopName": "MALORGIO MARIA ANTONIA",
    "address": "VIA IV NOVEMBRE 144",
    "city": "SAVA",
    "ZIP": "74028",
    "province": "TARANTO",
    "numerPhone": "099 9721836",
    "shopType": "CENTRI ESTETICI",
    "latitude": "40.399708",
    "longitude": "17.548717"
  },
  {
    "shopName": "L'OASI DEL BENESSERE",
    "address": "VIA DI PRISCILLA, 75",
    "city": "ROMA",
    "ZIP": "199",
    "province": "ROMA",
    "numerPhone": "698183398",
    "shopType": "CENTRI ESTETICI",
    "latitude": "41.93173",
    "longitude": "12.511542"
  },
  {
    "shopName": "MARTINELLI LARA",
    "address": "VIA MIGLIORETTI, 9",
    "city": "OSTIGLIA",
    "ZIP": "46035",
    "province": "MANTOVA",
    "numerPhone": "0386 800208",
    "shopType": "CENTRI ESTETICI",
    "latitude": "45.065586",
    "longitude": "11.131949"
  },
  {
    "shopName": "MATIS",
    "address": "VIA FACCIO, 19/21",
    "city": "VICENZA",
    "ZIP": "36100",
    "province": "VICENZA",
    "numerPhone": "444571535",
    "shopType": "CENTRI ESTETICI",
    "latitude": "45.545036",
    "longitude": "11.526766"
  },
  {
    "shopName": "MAYA CLUB S.R.L.",
    "address": "VIA PONCHIELLI, 79",
    "city": "PESARO",
    "ZIP": "61100",
    "province": "PESARO-URBINO",
    "numerPhone": "0721 416086",
    "shopType": "CENTRI ESTETICI",
    "latitude": "43.901455",
    "longitude": "12.894809"
  },
  {
    "shopName": "MAYLEA BELLEZZA E BENESSERE",
    "address": "VIA TURATI, 5",
    "city": "SEGRATE",
    "ZIP": "20090",
    "province": "MILANO",
    "numerPhone": "02 2132498",
    "shopType": "CENTRI ESTETICI",
    "latitude": "45.49084",
    "longitude": "9.296066"
  },
  {
    "shopName": "MAYUMI SPA E BENESSERE S.R.L.",
    "address": "VIA ROBERTO FERRUZZI 112",
    "city": "ROMA",
    "ZIP": "143",
    "province": "ROMA",
    "numerPhone": "06 5030630",
    "shopType": "CENTRI ESTETICI",
    "latitude": "41.824974",
    "longitude": "12.508965"
  },
  {
    "shopName": "PARAFARMACIA MEDICAL AND BEAUTY",
    "address": "VIA MARTIRI DELLA LIBERTA,  64",
    "city": "MELZO",
    "ZIP": "20066",
    "province": "MILANO",
    "numerPhone": "02 43124207",
    "shopType": "CENTRI ESTETICI",
    "latitude": "45.49671",
    "longitude": "9.422429"
  },
  {
    "shopName": "MIMOSA DI BIANCHI MARIANGELA & C. S.A.S.",
    "address": "VIA GARIBALDI 38",
    "city": "LURATE CACCIVIO",
    "ZIP": "22075",
    "province": "COMO",
    "numerPhone": "031 491624",
    "shopType": "CENTRI ESTETICI",
    "latitude": "45.76575",
    "longitude": "8.998424"
  },
  {
    "shopName": "MIOSOTYS S.N.C. DI PORCU GIUSEPPA E C.",
    "address": "VIALE PIEMONTE 0/16",
    "city": "VINOVO",
    "ZIP": "10048",
    "province": "TORINO",
    "numerPhone": "011 9654100",
    "shopType": "CENTRI ESTETICI",
    "latitude": "44.972992",
    "longitude": "7.616632"
  },
  {
    "shopName": "MONTI BEAUTY",
    "address": "VIA S. GIOVANNI LUPATOTO, 22/A",
    "city": "VERONA",
    "ZIP": "37134",
    "province": "VERONA",
    "numerPhone": "045 509012",
    "shopType": "CENTRI ESTETICI",
    "latitude": "45.412323",
    "longitude": "10.999645"
  },
  {
    "shopName": "MY BEAUTY DI CASAGRANDE KATIA",
    "address": "PIAZZA MARCONI 10",
    "city": "COLLE UMBERTO",
    "ZIP": "31014",
    "province": "TREVISO",
    "numerPhone": "0438 394442",
    "shopType": "CENTRI ESTETICI",
    "latitude": "45.955414",
    "longitude": "12.360423"
  },
  {
    "shopName": "MY INSTITUTE SRL",
    "address": "VIALE GRAMSCI, 21",
    "city": "NAPOLI",
    "ZIP": "80122",
    "province": "NAPOLI",
    "numerPhone": "081 681638",
    "shopType": "CENTRI ESTETICI",
    "latitude": "40.82932",
    "longitude": "14.221585"
  },
  {
    "shopName": "BLACK SUN",
    "address": "VIA MARECCHIESE, 76/78",
    "city": "RIMINI",
    "ZIP": "47900",
    "province": "RIMINI",
    "numerPhone": "541790951",
    "shopType": "CENTRI ESTETICI",
    "latitude": "44.05682",
    "longitude": "12.553244"
  },
  {
    "shopName": "NACCHIA MARIA L'ANGOLO DELLA BELLEZZA",
    "address": "VIA BARTOLOMEO MANGINO 69",
    "city": "PAGANI",
    "ZIP": "84016",
    "province": "SALERNO",
    "numerPhone": "",
    "shopType": "CENTRI ESTETICI",
    "latitude": "40.74077",
    "longitude": "14.613467"
  },
  {
    "shopName": "NAILS E BEAUTY DI NANIA KATIA",
    "address": "VIALE ROMAGNA, 47/B",
    "city": "MONZA",
    "ZIP": "20900",
    "province": "MONZA BRIANZA",
    "numerPhone": "039 2000732",
    "shopType": "CENTRI ESTETICI",
    "latitude": "45.57261",
    "longitude": "9.251203"
  },
  {
    "shopName": "NARCISO DI NEPI IRENE",
    "address": "VIA TRENTO 241",
    "city": "SINALUNGA",
    "ZIP": "53048",
    "province": "SIENA",
    "numerPhone": "0577 630417",
    "shopType": "CENTRI ESTETICI",
    "latitude": "43.21331",
    "longitude": "11.761628"
  },
  {
    "shopName": "NASCA GIOVANNA",
    "address": "VIA SOLLIMA 77",
    "city": "TROINA",
    "ZIP": "94018",
    "province": "ENNA",
    "numerPhone": "333 2432121",
    "shopType": "CENTRI ESTETICI",
    "latitude": "37.780064",
    "longitude": "14.597279"
  },
  {
    "shopName": "NATURJA DI FAUCITANO GIADA",
    "address": "VIA DE GASPERI, 3",
    "city": "BATTIPAGLIA",
    "ZIP": "84091",
    "province": "SALERNO",
    "numerPhone": "8281992051",
    "shopType": "CENTRI ESTETICI",
    "latitude": "40.607365",
    "longitude": "14.988285"
  },
  {
    "shopName": "NEFER DI CASTILLO MILAGROS",
    "address": "VIA ILLIRIA, 12",
    "city": "ROMA",
    "ZIP": "183",
    "province": "ROMA",
    "numerPhone": "06 77200953",
    "shopType": "CENTRI ESTETICI",
    "latitude": "41.881657",
    "longitude": "12.502961"
  },
  {
    "shopName": "NEW ARMONY SRLS UNIPERSONALE",
    "address": "VIA COLOMBO 21",
    "city": "SCANDICCI",
    "ZIP": "50018",
    "province": "FIRENZE",
    "numerPhone": "055 7300050",
    "shopType": "CENTRI ESTETICI",
    "latitude": "43.753506",
    "longitude": "11.182348"
  },
  {
    "shopName": "NEW BODY INNOVATION A.S.D.",
    "address": "VIA RAVAGNESE SUPERIORE, 118",
    "city": "REGGIO CALABRIA",
    "ZIP": "89131",
    "province": "REGGIO CALABRIA",
    "numerPhone": "0965 639001",
    "shopType": "PALESTRE",
    "latitude": "38.07675",
    "longitude": "15.65359"
  },
  {
    "shopName": "NEW ERA",
    "address": "VIA ROMA, 129",
    "city": "CIMITILE",
    "ZIP": "80030",
    "province": "NAPOLI",
    "numerPhone": "818231881",
    "shopType": "CENTRI ESTETICI",
    "latitude": "40.941593",
    "longitude": "14.529244"
  },
  {
    "shopName": "NEW SOLE NON STOP DI CATAPANO RAFFAELLA AUDRY",
    "address": "VIA CAVOUR 81",
    "city": "SANTENA",
    "ZIP": "10026",
    "province": "TORINO",
    "numerPhone": "392 6641990",
    "shopType": "CENTRI ESTETICI",
    "latitude": "44.952957",
    "longitude": "7.774837"
  },
  {
    "shopName": "NON SOLO FITNESS S.S.D. A R.L.",
    "address": "VIA ROMA 67",
    "city": "VILLANOVA DI CAMPOSAMPIERO",
    "ZIP": "35010",
    "province": "PADOVA",
    "numerPhone": "049 9220949",
    "shopType": "PALESTRE",
    "latitude": "45.496025",
    "longitude": "11.970471"
  },
  {
    "shopName": "NUOVA IMMAGINE DI CRIPPA ANTONIO E C.SAS",
    "address": "VIA VERZA 31",
    "city": "CANZO",
    "ZIP": "22035",
    "province": "COMO",
    "numerPhone": "031 672122",
    "shopType": "CENTRI ESTETICI",
    "latitude": "45.85433",
    "longitude": "9.27132"
  },
  {
    "shopName": "NUOVO CENTRO ESTETICO AFRODITE DI MATTIOLI SABRINA",
    "address": "VIA LIPPI, 3",
    "city": "MODENA",
    "ZIP": "41124",
    "province": "MODENA",
    "numerPhone": "338 5486967",
    "shopType": "CENTRI ESTETICI",
    "latitude": "44.635563",
    "longitude": "10.907304"
  },
  {
    "shopName": "NUZZACI CARMELA",
    "address": "VIA FOSSATI, 3",
    "city": "SOLETO",
    "ZIP": "73010",
    "province": "LECCE",
    "numerPhone": "0836 663589",
    "shopType": "CENTRI ESTETICI",
    "latitude": "40.186493",
    "longitude": "18.206684"
  },
  {
    "shopName": "OASI DEL BENESSERE DI SACCHETTA FRANCESCA",
    "address": "PIAZZA DE GASPERI, 15/16",
    "city": "CORTONA",
    "ZIP": "52044",
    "province": "AREZZO",
    "numerPhone": "0575 630124",
    "shopType": "CENTRI ESTETICI",
    "latitude": "43.26225",
    "longitude": "11.977359"
  },
  {
    "shopName": "OASI DEL BENESSERE DI NKENGNE WAFFO MICHELINE CHARLOTTE",
    "address": "VIA OBERDAN 33 E/F",
    "city": "COLLE DI VAL D'ELSA",
    "ZIP": "53034",
    "province": "SIENA",
    "numerPhone": "0577 924144",
    "shopType": "CENTRI ESTETICI",
    "latitude": "43.420803",
    "longitude": "11.125948"
  },
  {
    "shopName": "OASI DELLA BELLEZZA DI RUFFINI VANESSA",
    "address": "VIA SAURO 128",
    "city": "GIULIANOVA",
    "ZIP": "64021",
    "province": "TERAMO",
    "numerPhone": "085 8000403",
    "shopType": "CENTRI ESTETICI",
    "latitude": "42.753464",
    "longitude": "13.967235"
  },
  {
    "shopName": "OASI S.N.C. DI JERJAR H. & AIT EL HADJ R.",
    "address": "VICOLO GUGLIELMO MARCONI 4",
    "city": "CORNUDA",
    "ZIP": "31041",
    "province": "TREVISO",
    "numerPhone": "0423 839084",
    "shopType": "CENTRI ESTETICI",
    "latitude": "45.83062",
    "longitude": "12.005107"
  },
  {
    "shopName": "OBIETTIVO BENESSERE DI L. LUCA & C. SAS",
    "address": "PIAZZA GRAMSCI 10",
    "city": "PUIANELLO",
    "ZIP": "42030",
    "province": "REGGIO EMILIA",
    "numerPhone": "0522 886495",
    "shopType": "CENTRI ESTETICI",
    "latitude": "44.625916",
    "longitude": "10.564274"
  },
  {
    "shopName": "LA PORTA DEL BENESSERE",
    "address": "VIA LIVELLO, 3",
    "city": "RHO",
    "ZIP": "20017",
    "province": "MILANO",
    "numerPhone": "02 93169541",
    "shopType": "CENTRI ESTETICI",
    "latitude": "45.528625",
    "longitude": "9.043556"
  },
  {
    "shopName": "ONE WAY FITNESS SAS DI GIANCARLO SCIMECA",
    "address": "VIALE DEI COLLI PORTUENSI, 140",
    "city": "ROMA",
    "ZIP": "151",
    "province": "ROMA",
    "numerPhone": "06 53273258",
    "shopType": "PALESTRE",
    "latitude": "41.871044",
    "longitude": "12.443066"
  },
  {
    "shopName": "ORNY NAILS DI BORDOGNA ORNELLA",
    "address": "VIA LUNGO STURA ODDINI, 7",
    "city": "OVADA",
    "ZIP": "15076",
    "province": "ALESSANDRIA",
    "numerPhone": "",
    "shopType": "CENTRI ESTETICI",
    "latitude": "44.6411",
    "longitude": "8.64869"
  },
  {
    "shopName": "P. & G. DI DIARENA PAOLA E C. SAS",
    "address": "STRADA PER PILONICO PATERNO 15/A",
    "city": "PERUGIA",
    "ZIP": "6080",
    "province": "PERUGIA",
    "numerPhone": "075 6020120",
    "shopType": "CENTRI ESTETICI",
    "latitude": "43.110718",
    "longitude": "12.390828"
  },
  {
    "shopName": "PALEXTRA S.A.S. DI ALBERICO ALDO & C.",
    "address": "VIA GIACOMO PUCCINI 1",
    "city": "LUGO",
    "ZIP": "48022",
    "province": "RAVENNA",
    "numerPhone": "0545 35397",
    "shopType": "PALESTRE",
    "latitude": "44.425518",
    "longitude": "11.902053"
  },
  {
    "shopName": "PALLADINO ANNA TERESA ESTETICA MAXXIMO",
    "address": "VIA MONTEROTONDO 27",
    "city": "ROMA",
    "ZIP": "199",
    "province": "ROMA",
    "numerPhone": "686217280",
    "shopType": "CENTRI ESTETICI",
    "latitude": "41.933544",
    "longitude": "12.513215"
  },
  {
    "shopName": "PARAFARMACIA SANTI MEDICI",
    "address": "PIAZZA DEL POPOLO, 4",
    "city": "CARPINO",
    "ZIP": "71010",
    "province": "FOGGIA",
    "numerPhone": "0884 992178",
    "shopType": "FARMACIE",
    "latitude": "41.84459",
    "longitude": "15.857069"
  },
  {
    "shopName": "PARAFARMACIA DOTT. ANGELO COLUCCI",
    "address": "VIA MARGHERITA DI SAVOIA 131",
    "city": "PUTIGNANO",
    "ZIP": "70017",
    "province": "BARI",
    "numerPhone": "080 4911743",
    "shopType": "FARMACIE",
    "latitude": "40.85113",
    "longitude": "17.12489"
  },
  {
    "shopName": "PARAFARMACIA E CENTRO POLISPECIALISTICO BENNY DOTT.SSA FERNANDA VECCHIONE",
    "address": "VIA CIRCUMVALLAZIONE 24",
    "city": "NOLA",
    "ZIP": "80035",
    "province": "NAPOLI",
    "numerPhone": "339 5690978",
    "shopType": "CENTRI ESTETICI",
    "latitude": "40.920834",
    "longitude": "14.535167"
  },
  {
    "shopName": "PARAFARMACIA NODI DI BENESSERE",
    "address": "VIA GIACOMO MATTEOTTI, 58",
    "city": "AVELLINO",
    "ZIP": "83100",
    "province": "AVELLINO",
    "numerPhone": "",
    "shopType": "FARMACIE",
    "latitude": "40.9129",
    "longitude": "14.790802"
  },
  {
    "shopName": "PARAPHARMA DI PASSON E CODISPOTI S.N.C.",
    "address": "VIA PALLADIO, 53",
    "city": "TAVAGNACCO",
    "ZIP": "33010",
    "province": "UDINE",
    "numerPhone": "0432 571141",
    "shopType": "FARMACIE",
    "latitude": "46.11446",
    "longitude": "13.219839"
  },
  {
    "shopName": "PARRINO ANTONIO ALFREDO",
    "address": "CORSO CAVOUR, 45",
    "city": "MESSINA",
    "ZIP": "98122",
    "province": "MESSINA",
    "numerPhone": "090 672447",
    "shopType": "CENTRI ESTETICI",
    "latitude": "38.19123",
    "longitude": "15.552537"
  },
  {
    "shopName": "PESCE FILOMENA",
    "address": "VIA AMANDO VESCOVO, 13",
    "city": "BISCEGLIE",
    "ZIP": "76011",
    "province": "BARLETTA ANDRIA TRANI",
    "numerPhone": "347 9133613",
    "shopType": "CENTRI ESTETICI",
    "latitude": "41.24145",
    "longitude": "16.49416"
  },
  {
    "shopName": "PIANETA SOLE S.A.S. DI BERETTA DANIELA & C.",
    "address": "PIAZZA DEI VIGNALI 3",
    "city": "MADONE",
    "ZIP": "24040",
    "province": "BERGAMO",
    "numerPhone": "035 4942205",
    "shopType": "CENTRI ESTETICI",
    "latitude": "45.651745",
    "longitude": "9.551846"
  },
  {
    "shopName": "PIANETA SOLE S.A.S. DI GIOVANNI ROTASPERTI & C.",
    "address": "VIA GIUSEPPE MAZZINI 19",
    "city": "DALMINE",
    "ZIP": "24044",
    "province": "BERGAMO",
    "numerPhone": "035 562849",
    "shopType": "CENTRI ESTETICI",
    "latitude": "45.64733",
    "longitude": "9.601292"
  },
  {
    "shopName": "PIEL DORADA",
    "address": "VIA DEL CRISTO, 4",
    "city": "CAVRIAGO",
    "ZIP": "42025",
    "province": "REGGIO EMILIA",
    "numerPhone": "522577624",
    "shopType": "CENTRI ESTETICI",
    "latitude": "44.69526",
    "longitude": "10.528288"
  },
  {
    "shopName": "PIROZZI ANTONIETTA LUXURY BEAUTY CENTER",
    "address": "CORSO CAMPANO 503",
    "city": "GIUGLIANO IN CAMPANIA",
    "ZIP": "80014",
    "province": "NAPOLI",
    "numerPhone": "081 3301512",
    "shopType": "CENTRI ESTETICI",
    "latitude": "40.928753",
    "longitude": "14.185997"
  },
  {
    "shopName": "CENTRO ESTETICO PAOLA POGGI",
    "address": "VIA MILANO, 1",
    "city": "GALLARATE",
    "ZIP": "21013",
    "province": "VARESE",
    "numerPhone": "",
    "shopType": "PALESTRE",
    "latitude": "45.65779",
    "longitude": "8.797615"
  },
  {
    "shopName": "POMPEO ANNA MARIA ESTETISTA",
    "address": "VIA GIOTTO, 161/163",
    "city": "COLLEFERRO",
    "ZIP": "34",
    "province": "ROMA",
    "numerPhone": "06 9780732",
    "shopType": "CENTRI ESTETICI",
    "latitude": "41.728447",
    "longitude": "13.007663"
  },
  {
    "shopName": "PRIMOPIANO CENTRO ESTETICO",
    "address": "*VIA CESARE BATTISTI, 89",
    "city": "SULZANO",
    "ZIP": "25058",
    "province": "BRESCIA",
    "numerPhone": "30985327",
    "shopType": "CENTRI ESTETICI",
    "latitude": "45.689587",
    "longitude": "10.099932"
  },
  {
    "shopName": "CENTRO ESTETICO BENESSERE DI PROCOPIO MARIANNA",
    "address": "VIA PITAGORA, 7",
    "city": "DAVOLI",
    "ZIP": "88060",
    "province": "CATANZARO",
    "numerPhone": "",
    "shopType": "CENTRI ESTETICI",
    "latitude": "38.66815",
    "longitude": "16.544043"
  },
  {
    "shopName": "PROFESSIONAL'S DI GIORGIO ROSALIA",
    "address": "VIA A.ANFOSSI, 19",
    "city": "MILANO",
    "ZIP": "20135",
    "province": "MILANO",
    "numerPhone": "02 55184856",
    "shopType": "CENTRI ESTETICI",
    "latitude": "45.46018",
    "longitude": "9.210809"
  },
  {
    "shopName": "PROFUMERIA LIA DI LENARDUZZI LIA",
    "address": "VIA MORIGI 1",
    "city": "MILANO",
    "ZIP": "20123",
    "province": "MILANO",
    "numerPhone": "02 8052901",
    "shopType": "CENTRI ESTETICI",
    "latitude": "45.46221",
    "longitude": "9.181327"
  },
  {
    "shopName": "PROGETTO BENESSERE DI PAGGETTI RAFFAELLA",
    "address": "VIALE VITTORIO EMANUELE ORLANDO 24/B",
    "city": "CITTA' DI CASTELLO",
    "ZIP": "6012",
    "province": "PERUGIA",
    "numerPhone": "075 8523216",
    "shopType": "CENTRI ESTETICI",
    "latitude": "43.451878",
    "longitude": "12.246207"
  },
  {
    "shopName": "PUNTO FORMA",
    "address": "VIA GRAMSCI, 27",
    "city": "BORGARO TORINESE",
    "ZIP": "10071",
    "province": "TORINO",
    "numerPhone": "011 4702913",
    "shopType": "CENTRI ESTETICI",
    "latitude": "45.149178",
    "longitude": "7.6614056"
  },
  {
    "shopName": "DENISE MAISON DE BEAUTE'",
    "address": "CORSO MILANO 41",
    "city": "VIGEVANO",
    "ZIP": "27029",
    "province": "PAVIA",
    "numerPhone": "0381 73394",
    "shopType": "CENTRI ESTETICI",
    "latitude": "45.322105",
    "longitude": "8.869731"
  },
  {
    "shopName": "RAGGI DI SOLE DI ANGELA DI VINTI",
    "address": "VIA JAMORETTI 43",
    "city": "INDUNO OLONA",
    "ZIP": "21056",
    "province": "VARESE",
    "numerPhone": "0332 203184",
    "shopType": "CENTRI ESTETICI",
    "latitude": "45.84353",
    "longitude": "8.840528"
  },
  {
    "shopName": "RELAX",
    "address": "VIA OSTIGLIA, 10",
    "city": "MILANO",
    "ZIP": "20133",
    "province": "MILANO",
    "numerPhone": "270100878",
    "shopType": "CENTRI ESTETICI",
    "latitude": "45.464897",
    "longitude": "9.226862"
  },
  {
    "shopName": "RI.DEA SRL",
    "address": "VIA NAZIONALE, 127",
    "city": "ROSETO DEGLI ABRUZZI",
    "ZIP": "64026",
    "province": "TERAMO",
    "numerPhone": "085 8941103",
    "shopType": "CENTRI ESTETICI",
    "latitude": "42.678867",
    "longitude": "14.013341"
  },
  {
    "shopName": "RICCI&CAPRICCI DI GIOFFREDI BARBARA",
    "address": "STRADA TIBERINA NORD 24",
    "city": "PERUGIA",
    "ZIP": "6134",
    "province": "PERUGIA",
    "numerPhone": "075 5791027",
    "shopType": "CENTRI ESTETICI",
    "latitude": "43.13062",
    "longitude": "12.453516"
  },
  {
    "shopName": "RINASCERE",
    "address": "VIA ROMA, 72",
    "city": "CAMPAGNA LUPIA",
    "ZIP": "30010",
    "province": "VENEZIA",
    "numerPhone": "41461201",
    "shopType": "CENTRI ESTETICI",
    "latitude": "45.332047",
    "longitude": "12.048815"
  },
  {
    "shopName": "RITA PROFUMI",
    "address": "VIA FORO BOARIO, 73",
    "city": "LUGO",
    "ZIP": "48022",
    "province": "RAVENNA",
    "numerPhone": "54524096",
    "shopType": "CENTRI ESTETICI",
    "latitude": "44.4226",
    "longitude": "11.9091"
  },
  {
    "shopName": "ROBERTO IMMACOLATA (MAGIA BY TINA R. PROF. BIJOUTT. REGALI)",
    "address": "VIA DEI CIMBRI, 22/24/26",
    "city": "NAPOLI",
    "ZIP": "80138",
    "province": "NAPOLI",
    "numerPhone": "081 5539672",
    "shopType": "CENTRI ESTETICI",
    "latitude": "40.848682",
    "longitude": "14.262029"
  },
  {
    "shopName": "ARMONIA E BENESSERE GROUP",
    "address": "VIA ROCCA CENCIA, 25/G",
    "city": "ROMA",
    "ZIP": "132",
    "province": "ROMA",
    "numerPhone": "06 20765512",
    "shopType": "CENTRI ESTETICI",
    "latitude": "41.863922",
    "longitude": "12.687747"
  },
  {
    "shopName": "ROSSO MAKEUP FORMATO SILVIA",
    "address": "VIA BENEVENTO, 50",
    "city": "MONTESARCHIO",
    "ZIP": "82016",
    "province": "BENEVENTO",
    "numerPhone": "0824 835848",
    "shopType": "CENTRI ESTETICI",
    "latitude": "41.061123",
    "longitude": "14.643535"
  },
  {
    "shopName": "RUGIADA CENTRO ESTETICO DI VITELLARO MARIA CONCETTA",
    "address": "VIA T.GROSSI, 3/5",
    "city": "MONZA",
    "ZIP": "20900",
    "province": "MONZA BRIANZA",
    "numerPhone": "039 2301084",
    "shopType": "CENTRI ESTETICI",
    "latitude": "45.58922",
    "longitude": "9.268995"
  },
  {
    "shopName": "IL BELL'ESSERE DI MARY",
    "address": "VIA ALBERTO TESTI, 26",
    "city": "FOGGIA",
    "ZIP": "71100",
    "province": "FOGGIA",
    "numerPhone": "881639051",
    "shopType": "CENTRI ESTETICI",
    "latitude": "41.454193",
    "longitude": "15.548012"
  },
  {
    "shopName": "OFFICINA 9C",
    "address": "VIA F.LLI BANDIERA, 9 A/B/C",
    "city": "RENDE",
    "ZIP": "87036",
    "province": "COSENZA",
    "numerPhone": "09 84401431",
    "shopType": "CENTRI ESTETICI",
    "latitude": "39.31362",
    "longitude": "16.170063"
  },
  {
    "shopName": "AQUALUX HOTEL",
    "address": "VIA EUROPA UNITA 24/B",
    "city": "BARDOLINO",
    "ZIP": "37011",
    "province": "VERONA",
    "numerPhone": "045 6229999",
    "shopType": "CENTRI ESTETICI",
    "latitude": "45.551003",
    "longitude": "10.726059"
  },
  {
    "shopName": "SANTINELLI SABRINA",
    "address": "VIA PIERO COLONNA, 4",
    "city": "ROMA",
    "ZIP": "149",
    "province": "ROMA",
    "numerPhone": "339 4247163",
    "shopType": "CENTRI ESTETICI",
    "latitude": "41.85588",
    "longitude": "12.451913"
  },
  {
    "shopName": "SAPORITO SALVATRICE",
    "address": "VIA ROMA, 59",
    "city": "CORLEONE",
    "ZIP": "90034",
    "province": "PALERMO",
    "numerPhone": "333 3272803",
    "shopType": "CENTRI ESTETICI",
    "latitude": "37.812088",
    "longitude": "13.303144"
  },
  {
    "shopName": "SAVINO LUISA",
    "address": "PIAZZA DEL SOLE, 42/44",
    "city": "ROMA",
    "ZIP": "144",
    "province": "ROMA",
    "numerPhone": "06 88541933",
    "shopType": "CENTRI ESTETICI",
    "latitude": "41.81326",
    "longitude": "12.448688"
  },
  {
    "shopName": "SCHIPILLITI ELENA",
    "address": "VIA DELLA RESISTENZA, 94/98",
    "city": "MONSUMMANO TERME",
    "ZIP": "51015",
    "province": "PISTOIA",
    "numerPhone": "572030959",
    "shopType": "CENTRI ESTETICI",
    "latitude": "43.862984",
    "longitude": "10.81666"
  },
  {
    "shopName": "SEMPLICEMENTE BELLA DI GUARINO VINCENZA",
    "address": "STRADA S. MARIA ROSSA SNC",
    "city": "PERUGIA",
    "ZIP": "6132",
    "province": "PERUGIA",
    "numerPhone": "333 7163318",
    "shopType": "CENTRI ESTETICI",
    "latitude": "43.110718",
    "longitude": "12.390828"
  },
  {
    "shopName": "SERENITA' E BENESSERE - CENTRO BENESSERE OLISTICO",
    "address": "PIAZZA IRPINIA, 4 ANGOLO VIA ROMAGNA",
    "city": "CAGLIARI",
    "ZIP": "9127",
    "province": "CAGLIARI",
    "numerPhone": "70482799",
    "shopType": "CENTRI ESTETICI",
    "latitude": "39.227753",
    "longitude": "9.11846"
  },
  {
    "shopName": "SERVIZI S.A.S. DI LILIANA MARIA SANSICA",
    "address": "PIAZZA SAN FRANCESCO N.11",
    "city": "CEFALU'",
    "ZIP": "90015",
    "province": "PALERMO",
    "numerPhone": "0921 421073",
    "shopType": "CENTRI ESTETICI",
    "latitude": "38.035164",
    "longitude": "14.02225"
  },
  {
    "shopName": "SGAMBATI DOMENICO PARAFARMACIA IGEA",
    "address": "VIA PROVINCIALE BAIANO AVELLA 45",
    "city": "BAIANO",
    "ZIP": "83022",
    "province": "AVELLINO",
    "numerPhone": "081 19802581",
    "shopType": "FARMACIE",
    "latitude": "40.954544",
    "longitude": "14.611883"
  },
  {
    "shopName": "SLIM CENTER DI GRASSIA ANTONIETTA",
    "address": "VIA ROSSINI, 48",
    "city": "ORTA DI ATELLA",
    "ZIP": "81030",
    "province": "CASERTA",
    "numerPhone": "815022858",
    "shopType": "CENTRI ESTETICI",
    "latitude": "40.96105",
    "longitude": "14.277589"
  },
  {
    "shopName": "SNELLISSIMA CENTER DI MARZI MORENA",
    "address": "VIA GIANNI RODARI 1/A",
    "city": "SAN GIOVANNI VALDARNO",
    "ZIP": "52027",
    "province": "AREZZO",
    "numerPhone": "055 941461",
    "shopType": "CENTRI ESTETICI",
    "latitude": "43.574223",
    "longitude": "11.51627"
  },
  {
    "shopName": "SOAR ESTETICA SOCIETA' A RESPONSABILITA' LIMITATA SEMPLIFICA",
    "address": "VIA MONTANO DEI ROSSI SNC",
    "city": "CAIANELLO",
    "ZIP": "81059",
    "province": "CASERTA",
    "numerPhone": "0823  988963",
    "shopType": "CENTRI ESTETICI",
    "latitude": "41.294743",
    "longitude": "14.085061"
  },
  {
    "shopName": "SOCIETA' COOPERATIVA POLISPORTIVA CONCA D'ORO -SOCIETA' SPORTIVA DILETTANTISTICA",
    "address": "VIA PARUTA FILIPPO 10/H",
    "city": "PALERMO",
    "ZIP": "90131",
    "province": "PALERMO",
    "numerPhone": "328 7132549",
    "shopType": "PALESTRE",
    "latitude": "38.097427",
    "longitude": "13.318684"
  },
  {
    "shopName": "SOLE & COCCOLE DI CATANIA ANGELO",
    "address": "VIA MONTEBELLO 35",
    "city": "PARMA",
    "ZIP": "43100",
    "province": "PARMA",
    "numerPhone": "0521 960090",
    "shopType": "CENTRI ESTETICI",
    "latitude": "44.786465",
    "longitude": "10.332055"
  },
  {
    "shopName": "SOLE E FORMA SAS C/O CENTRO COMMERCIALE PANORAMA",
    "address": "STRADA SETTIMO, 371",
    "city": "SAN MAURO TORINESE",
    "ZIP": "10099",
    "province": "TORINO",
    "numerPhone": "011 2732320",
    "shopType": "CENTRI ESTETICI",
    "latitude": "45.122234",
    "longitude": "7.742018"
  },
  {
    "shopName": "SOLE E FORMA SAS C/O CENTRO COMMERCIALE LA CERTOSA",
    "address": "VIA SPAGNA, 12",
    "city": "COLLEGNO",
    "ZIP": "10093",
    "province": "TORINO",
    "numerPhone": "011 7399357",
    "shopType": "CENTRI ESTETICI",
    "latitude": "45.10104",
    "longitude": "7.591948"
  },
  {
    "shopName": "SOLE LUNA SNC DI RAFFAELLI VERONICA E C.",
    "address": "VIA DELLA STAZIONE, 19",
    "city": "AUDITORE",
    "ZIP": "61020",
    "province": "PESARO-URBINO",
    "numerPhone": "0722 362626",
    "shopType": "CENTRI ESTETICI",
    "latitude": "43.81545",
    "longitude": "12.589268"
  },
  {
    "shopName": "SOLE S.A.S. DI FRACASSA DANIELA E C.",
    "address": "VIA FONTANA BRACCHI,16",
    "city": "COLLEFERRO",
    "ZIP": "34",
    "province": "ROMA",
    "numerPhone": "06 9701599",
    "shopType": "CENTRI ESTETICI",
    "latitude": "41723",
    "longitude": "12.99858"
  },
  {
    "shopName": "SOLELUNA",
    "address": "VIALE CECCARINI,49",
    "city": "RICCIONE",
    "ZIP": "47838",
    "province": "RIMINI",
    "numerPhone": "541697737",
    "shopType": "CENTRI ESTETICI",
    "latitude": "44.00203",
    "longitude": "12.659774"
  },
  {
    "shopName": "SOLERO",
    "address": "VIA LECCO, 45",
    "city": "MOZZO",
    "ZIP": "24010",
    "province": "BERGAMO",
    "numerPhone": "",
    "shopType": "CENTRI ESTETICI",
    "latitude": "45.697235",
    "longitude": "9.595265"
  },
  {
    "shopName": "SPIGA AMICA DI MARIANGELA SPALTRO",
    "address": "LARGO GARIBALDI 61",
    "city": "NOCI",
    "ZIP": "70015",
    "province": "BARI",
    "numerPhone": "080 8765454",
    "shopType": "FARMACIE",
    "latitude": "40.7965",
    "longitude": "17.121511"
  },
  {
    "shopName": "ESTETICA EFFETTO DONNA DI PATRIZIA SPINOGATTI",
    "address": "VIA PAPA GIOVANNI XXIII, 182-184",
    "city": "ORTONA",
    "ZIP": "66026",
    "province": "CHIETI",
    "numerPhone": "085 9063666",
    "shopType": "CENTRI ESTETICI",
    "latitude": "42.34801",
    "longitude": "14.400793"
  },
  {
    "shopName": "SPORT PLANET SOCIETA' SPORTIVA DILETTANTISTICA A RESPONSABILITA' LIMITA",
    "address": "VIA DEL LAVORO NORD 85",
    "city": "URBANA",
    "ZIP": "35040",
    "province": "PADOVA",
    "numerPhone": "0429 847679",
    "shopType": "PALESTRE",
    "latitude": "45.203285",
    "longitude": "11.446647"
  },
  {
    "shopName": "STEFANECCHIA ALESSIA",
    "address": "VIA FELICIANO FEDELI 22/A",
    "city": "FOLIGNO",
    "ZIP": "6034",
    "province": "PERUGIA",
    "numerPhone": "07 4222459",
    "shopType": "CENTRI ESTETICI",
    "latitude": "42.971382",
    "longitude": "12.683182"
  },
  {
    "shopName": "STRAMAZZO SILVIA",
    "address": "VIA F. PETRARCA 29",
    "city": "PIOVE DI SACCO",
    "ZIP": "35028",
    "province": "PADOVA",
    "numerPhone": "049 5840339",
    "shopType": "CENTRI ESTETICI",
    "latitude": "45.30487",
    "longitude": "12.03477"
  },
  {
    "shopName": "STUDIO BULCIOLU DR.SSA GIUSEPPINA MARIA AGOSTINA",
    "address": "VIA DEI FRUTTETI 134",
    "city": "FERRARA",
    "ZIP": "44123",
    "province": "FERRARA",
    "numerPhone": "0532 751108",
    "shopType": "CENTRI ESTETICI",
    "latitude": "44.835373",
    "longitude": "11.642139"
  },
  {
    "shopName": "STUDIO CEM CENTRO BENESSERE",
    "address": "VIA ALESSI, 22",
    "city": "ESTE",
    "ZIP": "35042",
    "province": "PADOVA",
    "numerPhone": "0429 51405",
    "shopType": "CENTRI ESTETICI",
    "latitude": "45.22745",
    "longitude": "11.651211"
  },
  {
    "shopName": "STUDIO CEM CENTRO BENESSERE",
    "address": "VIA PAPA GIOVANNI XXIII, 6",
    "city": "MONSELICE",
    "ZIP": "35043",
    "province": "PADOVA",
    "numerPhone": "0429 72776",
    "shopType": "CENTRI ESTETICI",
    "latitude": "45.23862",
    "longitude": "11.75307"
  },
  {
    "shopName": "STUDIO DI ESTETICA E CENTRO BENESSERE SOLARIS",
    "address": "VIA BARI, 36",
    "city": "COPERTINO",
    "ZIP": "73043",
    "province": "LECCE",
    "numerPhone": "0832 949918",
    "shopType": "CENTRI ESTETICI",
    "latitude": "40.276943",
    "longitude": "18.041264"
  },
  {
    "shopName": "STUDIO ESTETICA LIA DI PAVONE ARCANGELA",
    "address": "VIA RUTIGLIANO, 5",
    "city": "CELLAMARE",
    "ZIP": "70010",
    "province": "BARI",
    "numerPhone": "080 4656229",
    "shopType": "CENTRI ESTETICI",
    "latitude": "41.02006",
    "longitude": "16.929283"
  },
  {
    "shopName": "STUDIO ESTETICO ANITA DI LISCIANDRA ANITA",
    "address": "VIA GHIACCIAIA, 1",
    "city": "SAN BENIGNO CANAVESE",
    "ZIP": "10080",
    "province": "TORINO",
    "numerPhone": "333 9265256",
    "shopType": "CENTRI ESTETICI",
    "latitude": "45.22235",
    "longitude": "7.78178"
  },
  {
    "shopName": "STUDIO ESTETICO MIRO' DI MIGLIORE ADRIANA & C. SAS",
    "address": "VIA MARTIRI DELLA LIBERTA' 1/7 S",
    "city": "GENOVA",
    "ZIP": "16156",
    "province": "GENOVA",
    "numerPhone": "010 6981308",
    "shopType": "CENTRI ESTETICI",
    "latitude": "44.426857",
    "longitude": "8.816198"
  },
  {
    "shopName": "STUDIO ESTETICO GLAMOUR",
    "address": "VIA CARLO CATTANEO, 20",
    "city": "GALLARATE",
    "ZIP": "21013",
    "province": "VARESE",
    "numerPhone": "0331 701532",
    "shopType": "CENTRI ESTETICI",
    "latitude": "45.66038",
    "longitude": "8.79956"
  },
  {
    "shopName": "STUDIO NICE",
    "address": "VIA MARIE CURIE, 25",
    "city": "QUARTO",
    "ZIP": "80100",
    "province": "NAPOLI",
    "numerPhone": "",
    "shopType": "CENTRI ESTETICI",
    "latitude": "40.87784",
    "longitude": "14.141669"
  },
  {
    "shopName": "LA SUITE C/O C.C. LE PIAZZE",
    "address": "VIA PIO LA TORRE, 2",
    "city": "CASTEL MAGGIORE",
    "ZIP": "40013",
    "province": "BOLOGNA",
    "numerPhone": "051 6325095",
    "shopType": "CENTRI ESTETICI",
    "latitude": "44.56858",
    "longitude": "11.358613"
  },
  {
    "shopName": "LA SUITE C/O C.C. LE MERAVILLE",
    "address": "VIALE TITO CARNACINI 57",
    "city": "BOLOGNA",
    "ZIP": "40100",
    "province": "BOLOGNA",
    "numerPhone": "051 510752",
    "shopType": "CENTRI ESTETICI",
    "latitude": "44.515736",
    "longitude": "11.397358"
  },
  {
    "shopName": "LA SUITE C/O C.C. LA CORTE",
    "address": "VIA DI CORTICELLA, 3/9",
    "city": "BOLOGNA",
    "ZIP": "40128",
    "province": "BOLOGNA",
    "numerPhone": "051 363633",
    "shopType": "CENTRI ESTETICI",
    "latitude": "44.537125",
    "longitude": "11.355518"
  },
  {
    "shopName": "SUN & TAN POINT DI GOTTUSO FRANCESCA & C",
    "address": "VIA LEONARDO DA VINCI, 3",
    "city": "CAROBBIO DEGLI ANGELI",
    "ZIP": "24060",
    "province": "BERGAMO",
    "numerPhone": "035 4251029",
    "shopType": "CENTRI ESTETICI",
    "latitude": "45.68655",
    "longitude": "9.807642"
  },
  {
    "shopName": "SUNNY DAY",
    "address": "VIA AURELIANA, 80",
    "city": "MONTEGROTTO TERME",
    "ZIP": "35036",
    "province": "PADOVA",
    "numerPhone": "049 793030",
    "shopType": "CENTRI ESTETICI",
    "latitude": "45.332176",
    "longitude": "11.791451"
  },
  {
    "shopName": "ESTETICA SUSY & CINZIA",
    "address": "VIA F. D'ACQUA PENDENTE, 63",
    "city": "PADOVA",
    "ZIP": "35124",
    "province": "PADOVA",
    "numerPhone": "049 8800065",
    "shopType": "CENTRI ESTETICI",
    "latitude": "45.387943",
    "longitude": "11.880893"
  },
  {
    "shopName": "TA.TI.F DI FILIPPI TIZIANA",
    "address": "VIA MAGLIANO SABINA 8/10",
    "city": "RIETI",
    "ZIP": "2100",
    "province": "RIETI",
    "numerPhone": "0746 272097",
    "shopType": "CENTRI ESTETICI",
    "latitude": "42.397896",
    "longitude": "12.859553"
  },
  {
    "shopName": "NOTE DI NATURA DI TEDESCHI MANUELA",
    "address": "VIA NAZIONALE, 41/13 C/O CORTE SMERALDA",
    "city": "TAVAGNACCO",
    "ZIP": "33010",
    "province": "UDINE",
    "numerPhone": "0432 480345",
    "shopType": "CENTRI ESTETICI",
    "latitude": "46.127464",
    "longitude": "13.210952"
  },
  {
    "shopName": "TEMPIO DELLA BELLEZZA DI PANICCIA EMANUELA",
    "address": "PIAZZA GIGLIO, 240",
    "city": "VEROLI",
    "ZIP": "3029",
    "province": "FROSINONE",
    "numerPhone": "0775 335168",
    "shopType": "CENTRI ESTETICI",
    "latitude": "41.662598",
    "longitude": "13.430255"
  },
  {
    "shopName": "LINE HARMONY",
    "address": "CORSO MAZZINI ,41",
    "city": "CIVIDALE DEL FRIULI",
    "ZIP": "33043",
    "province": "UDINE",
    "numerPhone": "0432 480345",
    "shopType": "CENTRI ESTETICI",
    "latitude": "46.09398",
    "longitude": "13.430742"
  },
  {
    "shopName": "TERME SAS DI MAZZUCCHI NADIA & C.",
    "address": "VIA STATALE REGINA, 40",
    "city": "CONSIGLIO DI RUMO",
    "ZIP": "22010",
    "province": "COMO",
    "numerPhone": "0344 81242",
    "shopType": "CENTRI ESTETICI",
    "latitude": "46.141083",
    "longitude": "9.290561"
  },
  {
    "shopName": "THE FITNESS SHOP INTEGRATORI E PRODOTTI BIOLOGICI",
    "address": "VIA DELLE NINFEE, 6",
    "city": "JESOLO",
    "ZIP": "30016",
    "province": "VENEZIA",
    "numerPhone": "0421 382130",
    "shopType": "PALESTRE",
    "latitude": "45.505535",
    "longitude": "12.642619"
  },
  {
    "shopName": "THE FITNESS SHOP 2 INTEGRATORI E PRODOTTI BIOLOGICI",
    "address": "VIA NAZARIO SAURO, 68",
    "city": "SAN DONA DI PIAVE",
    "ZIP": "30027",
    "province": "VENEZIA",
    "numerPhone": "392 6534460",
    "shopType": "PALESTRE",
    "latitude": "45.632023",
    "longitude": "12.570967"
  },
  {
    "shopName": "THE NATURAL",
    "address": "VIA CARLO PORTA, 21",
    "city": "MONZA",
    "ZIP": "20052",
    "province": "MONZA BRIANZA",
    "numerPhone": "393900528",
    "shopType": "CENTRI ESTETICI",
    "latitude": "45.582504",
    "longitude": "9.278975"
  },
  {
    "shopName": "TOP LINE DI RIVETTI LUCIA",
    "address": "VIA PEZZOTTI, 4",
    "city": "ADRO",
    "ZIP": "25030",
    "province": "BRESCIA",
    "numerPhone": "030 7356857",
    "shopType": "CENTRI ESTETICI",
    "latitude": "45.62352",
    "longitude": "9.955132"
  },